stop_id,stop_name,stop_lat,stop_lon,stop_code,stop_desc,zone_id,stop_url,location_type,parent_station,wheelchair_boarding,stop_direction,stop_timezone,vehicle_type,platform_code,level_id,mta_stop_id,regional_fare_card,tts_stop_name
4,Torino Rossetto,45.479889,12.250535,4,,48,,,,,,,,,,,,
5,Torino Universita',45.478184,12.253569,5,,48,,,,,,,,,,,,
7,Paganello Ticozzi,45.477222,12.250363,7,,48,,,,,,,,,,,,
8,Ca' Marcello Rossetto,45.478947,12.246139,8,,48,,,,,,,,,,,,
9,Ca' Marcello Cappuccina,45.481762,12.237450,9,,48,,,,,,,,,,,,
10,Gozzi Cappuccina,45.484650,12.237596,10,,48,,,,,,,,,,,,
11,Corso del Popolo Torino,45.484554,12.241225,11,,48,,,,,,,,,,,,
12,Corso del Popolo Milano,45.487968,12.243096,12,,48,,,,,,,,,,,,
13,Corso del Popolo Mestrina,45.490459,12.244670,13,,48,,,,,,,,,,,,
16,Stra Fossolovara,45.411095,12.005065,16,,28,,,,,,,,,,,,
17,Castellana Santa Chiara,45.498600,12.231609,17,,48,,,,,,,,,,,,
18,Carducci Pascoli,45.490864,12.240148,18,,48,,,,,,,,,,,,
19,San Marco Raffaello,45.329823,12.126707,19,,8,,,,,,,,,,,,
24,Trento Fagare',45.483540,12.228405,24,,48,,,,,,,,,,,,
25,Trento Podgora,45.486347,12.224987,25,,48,,,,,,,,,,,,
26,Trento Gazzera Alta,45.489792,12.223590,26,,48,,,,,,,,,,,,
27,Olmo Vittorio Veneto,45.518593,12.190710,27,,18,,,,,,,,,,,,
28,Gatta Santa Lucia,45.535091,12.207423,28,,48,,,,,,,,,,,,
29,Miranese Avanti,45.484657,12.194234,29,,48,,,,,,,,,,,,
30,Miranese Ivancich,45.484837,12.197288,30,,48,,,,,,,,,,,,
31,Miranese Pergine,45.485012,12.202356,31,,48,,,,,,,,,,,,
32,Miranese Piemonte,45.485016,12.208702,32,,48,,,,,,,,,,,,
33,Miranese Lazio,45.485287,12.211903,33,,48,,,,,,,,,,,,
34,Miranese Calucci,45.485512,12.215056,34,,48,,,,,,,,,,,,
35,Miranese Giustizia,45.486298,12.220907,35,,48,,,,,,,,,,,,
36,Miranese Monteverdi,45.490513,12.225891,36,,48,,,,,,,,,,,,
37,Miranese Vivaldi,45.492104,12.230068,37,,48,,,,,,,,,,,,
38,Carducci Felisati,45.491543,12.237827,38,,48,,,,,,,,,,,,
39,Piave Puccini,45.490917,12.235608,39,,48,,,,,,,,,,,,
40,Piave Fiume,45.487278,12.234235,40,,48,,,,,,,,,,,,
42,Piave Podgora,45.485153,12.233406,42,,48,,,,,,,,,,,,
43,Brendole,45.499485,12.213419,43,,48,,,,,,,,,,,,
44,Brendole Stignano,45.499374,12.214437,44,,48,,,,,,,,,,,,
45,Brendole Promontore,45.499008,12.216305,45,,48,,,,,,,,,,,,
46,Brendole Arsa,45.496742,12.219508,46,,48,,,,,,,,,,,,
48,Asseggiano Da Todi,45.496372,12.185871,48,,48,,,,,,,,,,,,
49,Asseggiano Euganea,45.495369,12.190020,49,,48,,,,,,,,,,,,
50,Asseggiano Marzabotto,45.494030,12.195753,50,,48,,,,,,,,,,,,
51,Asseggiano Pendini,45.493313,12.201653,51,,48,,,,,,,,,,,,
52,Asseggiano Volta,45.492783,12.208499,52,,48,,,,,,,,,,,,
53,Asseggiano Morin,45.492962,12.213514,53,,48,,,,,,,,,,,,
54,Asseggiano Pirano,45.494923,12.217203,54,,48,,,,,,,,,,,,
55,Gazzera Alta Volpi,45.494141,12.219450,55,,48,,,,,,,,,,,,
56,Quarnaro Calucci,45.492344,12.218122,56,,48,,,,,,,,,,,,
57,Calucci Lussingrande,45.489182,12.216783,57,,48,,,,,,,,,,,,
58,Calucci Cimetto,45.486149,12.216161,58,,48,,,,,,,,,,,,
59,Ca' Lin Castellana,45.530346,12.188085,59,,48,,,,,,,,,,,,
60,Ca' Lin Pitagora,45.532700,12.190220,60,,48,,,,,,,,,,,,
61,Ca' Lin Gatta,45.537193,12.191074,61,,48,,,,,,,,,,,,
62,Maerne Mulino,45.530251,12.152858,62,,18,,,,,,,,,,,,
63,Gatta Protagora,45.537636,12.193981,63,,48,,,,,,,,,,,,
64,GATTA IMMACOLATA,45.535576,12.204817,64,,48,,,,,,,,,,,,
65,Gatta Santa Lucia,45.534821,12.207663,65,,48,,,,,,,,,,,,
66,GATTA 90,45.534286,12.214073,66,,48,,,,,,,,,,,,
67,Gatta Scaramuzza,45.533768,12.218773,67,,48,,,,,,,,,,,,
68,Gatta Scarante,45.533768,12.222993,68,,48,,,,,,,,,,,,
69,Gatta Verci,45.533726,12.225893,69,,48,,,,,,,,,,,,
70,Gatta Pisacane,45.535446,12.236670,70,,48,,,,,,,,,,,,
71,Gatta Terraglio,45.535629,12.238614,71,,48,,,,,,,,,,,,
72,Terraglio Gatta,45.534946,12.239348,72,,48,,,,,,,,,,,,
73,Terraglio Nigra,45.531113,12.239121,73,,48,,,,,,,,,,,,
74,Terraglio Ca' Sagredo,45.527046,12.238872,74,,48,,,,,,,,,,,,
75,Terraglio Favorita,45.525131,12.238734,75,,48,,,,,,,,,,,,
76,Terraglio Terraglietto,45.518074,12.238483,76,,48,,,,,,,,,,,,
77,Terraglio Villa Salus,45.512623,12.238324,77,,48,,,,,,,,,,,,
78,Terraglio Borgo Pezzana,45.508873,12.238313,78,,48,,,,,,,,,,,,
79,Terraglio Peschiera,45.505180,12.237996,79,,48,,,,,,,,,,,,
80,Terraglio Teano,45.501686,12.237666,80,,48,,,,,,,,,,,,
81,Einaudi Castelvecchio,45.496544,12.239015,81,,48,,,,,,,,,,,,
82,Belfredo Terraglio,45.497818,12.238463,82,,48,,,,,,,,,,,,
83,Martellago Delle Motte,45.541790,12.154077,83,,18,,,,,,,,,,,,
84,San Rocco Bruno,45.495411,12.242478,84,,48,,,,,,,,,,,,
86,Mattuglie Dignano,45.490616,12.215822,86,,48,,,,,,,,,,,,
87,Martellago Pree,45.538158,12.175729,87,,18,,,,,,,,,,,,
88,Trivignano Park P14,45.534748,12.180218,88,,48,,,,,,,,,,,,
89,Trivignano Botticelli,45.533108,12.182289,89,,48,,,,,,,,,,,,
90,Trivignano Ca' Lin,45.529877,12.186795,90,,48,,,,,,,,,,,,
91,Trivignano centro,45.527592,12.189977,91,,48,,,,,,,,,,,,
92,Trivignano Gozzoli,45.525433,12.192641,92,,48,,,,,,,,,,,,
93,Trivignano Lotto,45.523857,12.195587,93,,48,,,,,,,,,,,,
94,Zelarino Parolari,45.517830,12.202759,94,,48,,,,,,,,,,,,
95,Zelarino Municipio,45.514503,12.208605,95,,48,,,,,,,,,,,,
96,Zelarino Chiesa,45.512634,12.211443,96,,48,,,,,,,,,,,,
97,Zelarino Carpaccio,45.511215,12.213695,97,,48,,,,,,,,,,,,
98,Castellana Marzenego,45.507195,12.217507,98,,48,,,,,,,,,,,,
99,Castellana Bellotto,45.503410,12.221023,99,,48,,,,,,,,,,,,
100,Circonvalazione Castellan,45.497604,12.236854,100,,48,,,,,,,,,,,,
101,Castellana Cipressina,45.500103,12.226672,101,,48,,,,,,,,,,,,
102,Martellago Fornace,45.540955,12.171541,102,,18,,,,,,,,,,,,
104,Circonvallazione Olimpia,45.495316,12.236061,104,,48,,,,,,,,,,,,
105,Zelarino Munaretto,45.514385,12.208989,105,,48,,,,,,,,,,,,
106,Mogliano Marocchesa,45.537624,12.239259,106,,3,,,,,,,,,,,,
107,Mogliano Marignana,45.543301,12.236386,107,,3,,,,,,,,,,,,
108,Mogliano Rimini,45.549931,12.234594,108,,3,,,,,,,,,,,,
109,Mogliano Ronzinella,45.554222,12.234392,109,,3,,,,,,,,,,,,
110,Gaggio Vivaldi,45.552280,12.310970,110,,17,,,,,,,,,,,,
112,San Liberale Nievo,45.548969,12.338140,112,,17,,,,,,,,,,,,
113,Marcon Stadio,45.556149,12.304291,113,,17,,,,,,,,,,,,
114,Marcon Perosi,45.557961,12.309540,114,,17,,,,,,,,,,,,
116,Einaudi Castelvecchio,45.496342,12.239940,116,,48,,,,,,,,,,,,
117,Camporese Gritti,45.488701,12.267890,117,,48,,,,,,,,,,,,
119,Miranese Piave,45.492069,12.235269,119,,48,,,,,,,,,,,,
121,Orlanda Pinerolo,45.500832,12.322797,121,,48,,,,,,,,,,,,
122,Mazzocco,45.553078,12.267757,122,,3,,,,,,,,,,,,
123,Favignana,45.503017,12.209157,123,,48,,,,,,,,,,,,
124,Brendole Favignana,45.502377,12.211108,124,,48,,,,,,,,,,,,
127,Marcon Cultura,45.555599,12.298808,127,,17,,,,,,,,,,,,
128,Marcon Oberdan,45.559052,12.298864,128,,17,,,,,,,,,,,,
129,Marcon Cooperazione,45.565289,12.302450,129,,17,,,,,,,,,,,,
130,Marcon Marmolada,45.563431,12.299080,130,,17,,,,,,,,,,,,
131,Marcon Municipio,45.554100,12.299969,131,,17,,,,,,,,,,,,
133,Marcon Lombardi,45.545822,12.307486,133,,17,,,,,,,,,,,,
134,Marcon Mattei,45.543667,12.303729,134,,17,,,,,,,,,,,,
135,San Liberale,45.547894,12.341832,135,,17,,,,,,,,,,,,
136,Delle Macchine Bandiera,45.475998,12.233737,136,,48,,,,,,,,,,,,
139,Gaggio Cimitero,45.553459,12.318880,139,,17,,,,,,,,,,,,
140,Gaggio,45.551884,12.316274,140,,17,,,,,,,,,,,,
141,Gaggio Fermi,45.551826,12.314265,141,,17,,,,,,,,,,,,
142,MESTRE CENTRO B2,45.492989,12.245829,142,,48,,,,,,,,,,,,
143,Marcon della Stazione,45.548626,12.309074,143,,17,,,,,,,,,,,,
144,Asseggiano Volta,45.492508,12.208752,144,,48,,,,,,,,,,,,
150,Malcontenta Iseo,45.442844,12.196743,150,,48,,,,,,,,,,,,
151,Cavergnago Mosto,45.493198,12.271921,151,,48,,,,,,,,,,,,
152,Cavergnago Mosto,45.493290,12.271341,152,,48,,,,,,,,,,,,
153,Cavergnago Mutinelli,45.490990,12.275790,153,,48,,,,,,,,,,,,
154,Cavergnago Mutinelli,45.490681,12.276180,154,,48,,,,,,,,,,,,
156,Mattuglie Perlan,45.490864,12.212291,156,,48,,,,,,,,,,,,
157,Mattuglie Perlan,45.490753,12.212457,157,,48,,,,,,,,,,,,
160,Pasqualigo Martiri,45.509323,12.262674,160,,48,,,,,,,,,,,,
162,Stazione MESTRE FS C4,45.482567,12.232998,162,,48,,,,,,,,,,,,
163,Stazione MESTRE FS C5,45.482380,12.233201,163,,48,,,,,,,,,,,,
164,Stazione MESTRE FS C3,45.482464,12.232773,164,,48,,,,,,,,,,,,
167,27 Ottobre D4,45.491821,12.246022,167,,48,,,,,,,,,,,,
168,27 Ottobre D3,45.492367,12.244761,168,,48,,,,,,,,,,,,
169,27 Ottobre D2,45.492500,12.244429,169,,48,,,,,,,,,,,,
171,Forte Marghera Gerlin,45.488384,12.250092,171,,48,,,,,,,,,,,,
172,Forte Marghera Hermada,45.484310,12.253892,172,,48,,,,,,,,,,,,
173,Forte Marghera Millosevic,45.482628,12.255492,173,,48,,,,,,,,,,,,
174,Forte Marghera Moretti,45.481606,12.256438,174,,48,,,,,,,,,,,,
175,Forte Marghera Aretusa,45.478905,12.260390,175,,48,,,,,,,,,,,,
176,Orlanda San Giuliano,45.475437,12.268085,176,,48,,,,,,,,,,,,
177,Orlanda Appia,45.479980,12.271014,177,,48,,,,,,,,,,,,
178,Orlanda Cavergnago,45.483070,12.276570,178,,48,,,,,,,,,,,,
179,Orlanda Sabbadino,45.484352,12.282595,179,,48,,,,,,,,,,,,
180,Orlanda Bagaron,45.485340,12.287677,180,,48,,,,,,,,,,,,
181,Orlanda Tiburtina,45.486610,12.294098,181,,48,,,,,,,,,,,,
182,Orlanda Casilina,45.488926,12.301503,182,,48,,,,,,,,,,,,
183,Orlanda Don Vecchi,45.490555,12.304290,183,,48,,,,,,,,,,,,
184,Orlanda Centro Ippico,45.494392,12.311913,184,,48,,,,,,,,,,,,
185,ORLANDA 200,45.497047,12.316431,185,,48,,,,,,,,,,,,
186,Orlanda Piovega,45.499325,12.320226,186,,48,,,,,,,,,,,,
187,Gatta Pisacane,45.535358,12.235766,187,,48,,,,,,,,,,,,
188,Triestina Tessera,45.503719,12.327392,188,,48,,,,,,,,,,,,
189,Galilei Darsena,45.503227,12.335668,189,,48,,,,,,,,,,,,
190,Calabria campi Sportivi,45.488911,12.210270,190,,48,,,,,,,,,,,,
191,Calabria campi Sportivi,45.489697,12.210467,191,,48,,,,,,,,,,,,
192,Triestina Zorzi,45.508255,12.335199,192,,48,,,,,,,,,,,,
193,Triestina Zuliani,45.511810,12.342914,193,,48,,,,,,,,,,,,
194,Triestina Laguna,45.512440,12.348638,194,,48,,,,,,,,,,,,
195,TRIESTINA AERONAVALI,45.513412,12.351580,195,,48,,,,,,,,,,,,
196,Triestina Paliaghetta,45.516663,12.354408,196,,48,,,,,,,,,,,,
197,Paliaga Ca' Noghera,45.522339,12.359163,197,,48,,,,,,,,,,,,
198,Triestina Scuole,45.503609,12.325192,198,,48,,,,,,,,,,,,
199,TRIESTINA FORTE ROSSAROL,45.503876,12.320724,199,,48,,,,,,,,,,,,
200,Triestina Torre,45.504673,12.311477,200,,48,,,,,,,,,,,,
201,Triestina Piovega,45.503468,12.301472,201,,48,,,,,,,,,,,,
202,Triestina Lazzaretto,45.503681,12.295003,202,,48,,,,,,,,,,,,
204,Triestina Prabello,45.505070,12.289040,204,,48,,,,,,,,,,,,
206,Gobbi Vallenari,45.501659,12.284408,206,,48,,,,,,,,,,,,
207,Gobbi Don Bosco,45.497730,12.286234,207,,48,,,,,,,,,,,,
208,Gobbi Ca' Dolfin,45.495960,12.287787,208,,48,,,,,,,,,,,,
209,Gobbi Mandarini,45.494183,12.290987,209,,48,,,,,,,,,,,,
210,Gobbi Mirtilli,45.492126,12.293760,210,,48,,,,,,,,,,,,
211,Gobbi Orlanda,45.488430,12.294841,211,,48,,,,,,,,,,,,
212,Passo Campalto Orlanda,45.486168,12.295654,212,,48,,,,,,,,,,,,
213,Campagna Lupia Raffaello,45.329597,12.126428,213,,8,,,,,,,,,,,,
214,Sabbadino Passo Campalto,45.482948,12.296135,214,,48,,,,,,,,,,,,
215,Sabbadino Bagaron,45.482018,12.291757,215,,48,,,,,,,,,,,,
216,Sabbadino  Laguna,45.481972,12.287410,216,,48,,,,,,,,,,,,
218,Zendrini Villaggio Laguna,45.479736,12.289793,218,,48,,,,,,,,,,,,
219,Cortivo Zendrini,45.479328,12.289596,219,,48,,,,,,,,,,,,
220,Cortivo Tombelle,45.480301,12.284923,220,,48,,,,,,,,,,,,
221,Altinia Berizzi,45.537560,12.299930,221,,48,,,,,,,,,,,,
222,Dese FS,45.537415,12.302074,222,,48,,,,,,,,,,,,
223,Dese Cicogne,45.532177,12.303159,223,,48,,,,,,,,,,,,
224,Dese centro,45.528919,12.304093,224,,48,,,,,,,,,,,,
225,Dese Litomarino,45.526226,12.302610,225,,48,,,,,,,,,,,,
226,ALTINIA 181,45.526081,12.297092,226,,48,,,,,,,,,,,,
227,Altinia Forte Cosenz,45.522007,12.288254,227,,48,,,,,,,,,,,,
228,Altinia Ca' Badoera,45.516479,12.284204,228,,48,,,,,,,,,,,,
229,Altinia Ca' Rezzonico,45.513969,12.283303,229,,48,,,,,,,,,,,,
230,Altinia Ca' Solaro,45.511639,12.283081,230,,48,,,,,,,,,,,,
231,Altinia Indri,45.509968,12.282542,231,,48,,,,,,,,,,,,
232,Altinia San Pietro,45.508015,12.282387,232,,48,,,,,,,,,,,,
233,Altinia Favaro Municipio,45.505466,12.282460,233,,48,,,,,,,,,,,,
240,Stazione Padova,45.416431,11.884220,240,,36,,,,,,,,,,,,
241,San Dona' Falzarego,45.504265,12.254103,241,,48,,,,,,,,,,,,
242,Garibaldi  Carpenedo,45.504807,12.250365,242,,48,,,,,,,,,,,,
243,Garibaldi Ognissanti,45.499500,12.246669,243,,48,,,,,,,,,,,,
244,Garibaldi Giardini,45.502712,12.248906,244,,48,,,,,,,,,,,,
246,Garibaldi Municipio,45.496735,12.244712,246,,48,,,,,,,,,,,,
256,Padova Fiera,45.413395,11.889547,256,,36,,,,,,,,,,,,
257,Pertini Vespucci,45.481857,12.267542,257,,48,,,,,,,,,,,,
258,Pertini Gavagnin,45.483585,12.266914,258,,48,,,,,,,,,,,,
259,Pertini Chiesa,45.485714,12.270374,259,,48,,,,,,,,,,,,
260,Trezzo Terraglio,45.507202,12.239548,260,,48,,,,,,,,,,,,
261,Cavergnago Taliercio,45.489094,12.278963,261,,48,,,,,,,,,,,,
264,Bissuola Varrone,45.493076,12.266289,264,,48,,,,,,,,,,,,
265,Bissuola Esiodo,45.493977,12.264252,265,,48,,,,,,,,,,,,
267,Casona Marziale,45.497334,12.265399,267,,48,,,,,,,,,,,,
268,Casona Bissuola,45.495670,12.263976,268,,48,,,,,,,,,,,,
269,Bissuola Tevere,45.493832,12.260563,269,,48,,,,,,,,,,,,
270,Bissuola Cadorna,45.493767,12.256760,270,,48,,,,,,,,,,,,
271,Bissuola Pisani,45.494907,12.253191,271,,48,,,,,,,,,,,,
272,Bissuola Colombo,45.495285,12.249731,272,,48,,,,,,,,,,,,
277,De Nicola Chiesa,45.508907,12.257128,277,,48,,,,,,,,,,,,
283,Don Sturzo Vallon,45.508545,12.255897,283,,48,,,,,,,,,,,,
284,Don Sturzo Pasqualigo,45.507496,12.260475,284,,48,,,,,,,,,,,,
285,Pasqualigo Monte Rua,45.505638,12.260915,285,,48,,,,,,,,,,,,
286,Vespucci San Giuseppe,45.480057,12.266924,286,,48,,,,,,,,,,,,
287,Vespucci Boerio,45.483521,12.262664,287,,48,,,,,,,,,,,,
288,Vespucci Gritti,45.486362,12.259330,288,,48,,,,,,,,,,,,
289,Vespucci Cattaneo,45.490437,12.254737,289,,48,,,,,,,,,,,,
290,Vespucci Pigafetta,45.493767,12.252268,290,,48,,,,,,,,,,,,
291,Vespucci Garigliano,45.495930,12.251058,291,,48,,,,,,,,,,,,
292,Fradeletto Cecchini,45.497765,12.248121,292,,48,,,,,,,,,,,,
293,Sansovino Vespucci,45.486931,12.256247,293,,48,,,,,,,,,,,,
294,Crea,45.482483,12.140987,294,,27,,,,,,,,,,,,
296,Fornase Perugia,45.477798,12.157836,296,,27,,,,,,,,,,,,
297,Matteotti Cimitero,45.480862,12.161125,297,,27,,,,,,,,,,,,
298,Matteotti Palermo,45.484875,12.164227,298,,27,,,,,,,,,,,,
303,27 Ottobre D5,45.490910,12.246580,303,,48,,,,,,,,,,,,
304,Spinea Centro,45.490639,12.167435,304,,27,,,,,,,,,,,,
305,Spinea Sanremo,45.494980,12.158205,305,,27,,,,,,,,,,,,
306,Spinea Orgnano,45.496155,12.152333,306,,27,,,,,,,,,,,,
307,Liberta' Costituzione,45.484974,12.146198,307,,27,,,,,,,,,,,,
308,Spinea Desenzano,45.488400,12.148199,308,,27,,,,,,,,,,,,
311,Spinea Villaggio Fiori,45.490788,12.152104,311,,27,,,,,,,,,,,,
312,Spinea Giorgione,45.486961,12.179400,312,,27,,,,,,,,,,,,
313,Miranese Selenia,45.485912,12.181585,313,,48,,,,,,,,,,,,
314,Miranese San Giorgio,45.484661,12.188350,314,,48,,,,,,,,,,,,
315,Trieste Miranese,45.482967,12.193039,315,,48,,,,,,,,,,,,
316,Trieste Robinie,45.477467,12.198835,316,,48,,,,,,,,,,,,
317,Bottenigo Capolinea,45.460186,12.218846,317,,48,,,,,,,,,,,,
318,Villabona Bottenigo,45.473972,12.200969,318,,48,,,,,,,,,,,,
319,Villabona  87,45.473362,12.199183,319,,48,,,,,,,,,,,,
320,Villabona Pioppi,45.474129,12.196567,320,,48,,,,,,,,,,,,
321,Villabona Morari,45.473526,12.195331,321,,48,,,,,,,,,,,,
322,Villabona Ontani,45.472633,12.192214,322,,48,,,,,,,,,,,,
323,San Dona' Cervino,45.502682,12.274580,323,,48,,,,,,,,,,,,
324,Salici Villabona,45.473289,12.188364,324,,48,,,,,,,,,,,,
325,Liberta' Commercio,45.478756,12.242431,325,,48,,,,,,,,,,,,
326,Trieste Catene,45.477348,12.203265,326,,48,,,,,,,,,,,,
327,Trieste Parco,45.477280,12.205907,327,,48,,,,,,,,,,,,
328,Trieste Mazzorbo,45.476887,12.211860,328,,48,,,,,,,,,,,,
329,Trieste Eraclea,45.476959,12.216614,329,,48,,,,,,,,,,,,
330,Calvi Parmesan,45.478069,12.219561,330,,48,,,,,,,,,,,,
331,Paolucci Longhena,45.479847,12.224811,331,,48,,,,,,,,,,,,
333,Durando Bellinato,45.478432,12.231878,333,,48,,,,,,,,,,,,
334,Rizzardi Carrer,45.479492,12.231233,334,,48,,,,,,,,,,,,
335,Marghera Salamonio,45.466061,12.214563,335,,48,,,,,,,,,,,,
336,Brunacci Monzani,45.463158,12.216647,336,,48,,,,,,,,,,,,
337,San Dona' Cervino,45.502487,12.274734,337,,48,,,,,,,,,,,,
338,Pasini Fratellanza,45.462219,12.221487,338,,48,,,,,,,,,,,,
339,Pasini Lavoratore,45.464069,12.222585,339,,48,,,,,,,,,,,,
340,Beccaria Correnti,45.466957,12.222488,340,,48,,,,,,,,,,,,
348,Calucci Quarnaro,45.492123,12.218561,348,,48,,,,,,,,,,,,
349,Paleocapa Parmesan,45.476971,12.220406,349,,48,,,,,,,,,,,,
350,Beccaria Parmesan,45.476494,12.218729,350,,48,,,,,,,,,,,,
351,Beccaria Canetti,45.474270,12.219298,351,,48,,,,,,,,,,,,
352,Beccaria Oroboni,45.471424,12.220282,352,,48,,,,,,,,,,,,
353,Beccaria Chiesa,45.469234,12.221388,353,,48,,,,,,,,,,,,
354,San Dona' Rielta,45.502640,12.270940,354,,48,,,,,,,,,,,,
355,Risorgimento Cimitero,45.487122,12.189347,355,,48,,,,,,,,,,,,
356,Risorgimento Sestella,45.488640,12.189848,356,,48,,,,,,,,,,,,
357,Risorgimento Carnia,45.491379,12.190752,357,,48,,,,,,,,,,,,
358,Risorgimento Asseggiano,45.494213,12.191685,358,,48,,,,,,,,,,,,
359,Olmo Giovanni XXIII,45.517334,12.186449,359,,18,,,,,,,,,,,,
360,Olmo Minzoni,45.518616,12.182106,360,,18,,,,,,,,,,,,
361,Olmo Papa Luciani,45.519390,12.177579,361,,18,,,,,,,,,,,,
362,Olmo Calvi,45.520336,12.173128,362,,18,,,,,,,,,,,,
363,Maerne Cimitero,45.521667,12.166748,363,,18,,,,,,,,,,,,
364,Maerne Tasso,45.523411,12.161586,364,,18,,,,,,,,,,,,
365,Maerne Chiesa,45.523785,12.157695,365,,18,,,,,,,,,,,,
366,Maerne Rialto,45.527451,12.157462,366,,18,,,,,,,,,,,,
367,San Dona' Rielta,45.502506,12.271250,367,,48,,,,,,,,,,,,
368,Spinea Rossignago,45.493084,12.161530,368,,27,,,,,,,,,,,,
369,Gobbi San Dona',45.504223,12.282771,369,,48,,,,,,,,,,,,
370,Martellago,45.543739,12.162720,370,,18,,,,,,,,,,,,
371,Preganziol FS,45.604038,12.231849,371,,5,,,,,,,,,,,,
372,Martellago Trento,45.543392,12.167814,372,,18,,,,,,,,,,,,
373,Martellago Verdi,45.545673,12.162611,373,,18,,,,,,,,,,,,
374,Martellago Vittoria,45.546909,12.156479,374,,18,,,,,,,,,,,,
375,Cavalcavia Vempa,45.482033,12.237975,375,,48,,,,,,,,,,,,
376,Trezzo Terraglio,45.507072,12.239944,376,,48,,,,,,,,,,,,
380,Liberta' Fincantieri,45.475498,12.251063,380,,48,,,,,,,,,,,,
381,Liberta' Porto Marghera,45.470928,12.258952,381,,48,,,,,,,,,,,,
382,Liberta' Righi,45.469776,12.264257,382,,48,,,,,,,,,,,,
384,Mestre Centro B1,45.493416,12.245515,384,,48,,,,,,,,,,,,
392,Liberta' Santa Chiara,45.440540,12.315740,392,,1,,,,,,,,,,,,
394,Tronchetto Mercato,45.443268,12.307403,394,,1,,,,,,,,,,,,
396,Tronchetto Tronchetto Fer,45.439072,12.304393,396,,1,,,,,,,,,,,,
397,Bandiera Durando,45.477421,12.232368,397,,48,,,,,,,,,,,,
398,Monte Cervino San Dona',45.502777,12.274578,398,,48,,,,,,,,,,,,
399,Bandiera Cantore,45.472996,12.229867,399,,48,,,,,,,,,,,,
401,Bandiera Tommaseo,45.468651,12.227349,401,,48,,,,,,,,,,,,
402,Bandiera Ghega,45.464817,12.225100,402,,48,,,,,,,,,,,,
404,Bandiera Cruto,45.461636,12.223213,404,,48,,,,,,,,,,,,
405,Ancona Torino,45.482140,12.248494,405,,48,,,,,,,,,,,,
406,Ancona Torino,45.482353,12.248974,406,,48,,,,,,,,,,,,
407,Ancona Carbonifera,45.484035,12.250468,407,,48,,,,,,,,,,,,
408,Ancona Carbonifera,45.484245,12.250948,408,,48,,,,,,,,,,,,
414,Padana Avena,45.456619,12.218191,414,,48,,,,,,,,,,,,
415,Malcontenta Padana,45.450577,12.213798,415,,48,,,,,,,,,,,,
417,Malcontenta Chimica,45.446304,12.211552,417,,48,,,,,,,,,,,,
419,Malcontenta Chiesa,45.437733,12.205413,419,,48,,,,,,,,,,,,
420,Capolinea Fusina,45.419327,12.256451,420,,48,,,,,,,,,,,,
421,Moranzani Elettronica,45.425243,12.246840,421,,48,,,,,,,,,,,,
422,Moranzani Conca,45.427937,12.240222,422,,48,,,,,,,,,,,,
423,Moranzani 42,45.428158,12.233301,423,,48,,,,,,,,,,,,
424,Moranzani 32,45.429596,12.220522,424,,48,,,,,,,,,,,,
425,Malcontenta Scuole,45.434967,12.208973,425,,48,,,,,,,,,,,,
426,Malcontenta Fimon,45.439270,12.200142,426,,48,,,,,,,,,,,,
427,Malcontenta Iseo,45.442280,12.197407,427,,48,,,,,,,,,,,,
428,Ca' Brentelle,45.446827,12.196675,428,,48,,,,,,,,,,,,
429,Malcontenta Erba,45.446075,12.194366,429,,48,,,,,,,,,,,,
430,Ca' Sabbioni Piva,45.457581,12.184909,430,,48,,,,,,,,,,,,
431,Ca' Sabbioni Marcuzzo,45.457840,12.181208,431,,48,,,,,,,,,,,,
432,Capolinea Ca' Sabbioni,45.456177,12.185709,432,,48,,,,,,,,,,,,
434,Ca' Sabbioni Zorzi,45.456913,12.180498,434,,48,,,,,,,,,,,,
435,Ca' Sabbioni Padana,45.453613,12.179563,435,,48,,,,,,,,,,,,
436,Padana Civico 338,45.451466,12.183452,436,,48,,,,,,,,,,,,
437,Padana Stazione,45.448517,12.192938,437,,48,,,,,,,,,,,,
438,Padana delle Trote,45.448692,12.199133,438,,48,,,,,,,,,,,,
439,Padana del Luccio,45.449154,12.202795,439,,48,,,,,,,,,,,,
442,dell' Elettronica Silos,45.433975,12.217304,442,,48,,,,,,,,,,,,
444,Elettronica Stabilimento,45.429798,12.233182,444,,48,,,,,,,,,,,,
445,Elettronica 9,45.429096,12.242968,445,,48,,,,,,,,,,,,
447,Dei Cantieri Centrale,45.428497,12.248568,447,,48,,,,,,,,,,,,
450,Chimica Meccanica,45.444012,12.215221,450,,48,,,,,,,,,,,,
451,Chimica Ingresso 4,45.446400,12.225912,451,,48,,,,,,,,,,,,
452,Chimica Ingresso 5,45.448643,12.232925,452,,48,,,,,,,,,,,,
453,Chimica Ingresso 7,45.448761,12.236904,453,,48,,,,,,,,,,,,
454,Chimica Ingresso 8,45.445629,12.244967,454,,48,,,,,,,,,,,,
456,Bottenigo Bottenigo,45.460484,12.218910,456,,48,,,,,,,,,,,,
457,Bottenigo Mandorli,45.476791,12.201394,457,,48,,,,,,,,,,,,
458,MESTRE CENTRO B4,45.493073,12.246053,458,,48,,,,,,,,,,,,
459,Azoto Macchine,45.473892,12.239046,459,,48,,,,,,,,,,,,
461,San Nicolo' Chiesa,45.428486,12.380626,461,,1,,,,,,,,,,,,
463,Ca' Bianca La Fontaine,45.389149,12.351607,463,,1,,,,,,,,,,,,
464,Malamocco Beato,45.368614,12.336860,464,,1,,,,,,,,,,,,
465,Delle Macchine Azoto,45.475071,12.237553,465,,48,,,,,,,,,,,,
473,Ca' Sabbioni Cosmai,45.456562,12.182378,473,,48,,,,,,,,,,,,
474,Trieste Bosco,45.477158,12.208988,474,,48,,,,,,,,,,,,
476,Vespucci Ca' Rossa,45.497002,12.250182,476,,48,,,,,,,,,,,,
479,Peron Saragat,45.515247,12.231560,479,,48,,,,,,,,,,,,
481,Peron Saragat,45.515156,12.231255,481,,48,,,,,,,,,,,,
482,Peron Baseggio,45.517353,12.231648,482,,48,,,,,,,,,,,,
483,Peron Baseggio,45.517704,12.231402,483,,48,,,,,,,,,,,,
485,Altinia Ca' Rezzonico,45.514820,12.283517,485,,48,,,,,,,,,,,,
487,Fornase Prati,45.474140,12.159186,487,,27,,,,,,,,,,,,
488,Fornase Prati,45.474052,12.159686,488,,27,,,,,,,,,,,,
489,Fornase,45.477074,12.160020,489,,27,,,,,,,,,,,,
490,Fornase Fornase,45.477356,12.160055,490,,27,,,,,,,,,,,,
501,VENEZIA,45.438164,12.318434,501,,1,,,,,,,,,,,,
503,VENEZIA,45.437740,12.318321,503,,1,,,,,,,,,,,,
505,VENEZIA,45.437840,12.319076,505,,1,,,,,,,,,,,,
506,VENEZIA,45.438255,12.319207,506,,1,,,,,,,,,,,,
507,VENEZIA,45.438248,12.319139,507,,1,,,,,,,,,,,,
508,VENEZIA,45.438255,12.319068,508,,1,,,,,,,,,,,,
509,VENEZIA,45.438259,12.318982,509,,1,,,,,,,,,,,,
510,VENEZIA,45.438259,12.318910,510,,1,,,,,,,,,,,,
511,VENEZIA,45.438263,12.318851,511,,1,,,,,,,,,,,,
512,VENEZIA,45.438267,12.318780,512,,1,,,,,,,,,,,,
514,VENEZIA,45.437824,12.319190,514,,1,,,,,,,,,,,,
515,VENEZIA,45.437893,12.318943,515,,1,,,,,,,,,,,,
516,VENEZIA,45.437870,12.319024,516,,1,,,,,,,,,,,,
517,VENEZIA,45.437920,12.318844,517,,1,,,,,,,,,,,,
527,San Pietro Pennello 2,45.325409,12.321410,527,,1,,,,,,,,,,,,
528,San Pietro Pennello 2,45.326397,12.322150,528,,1,,,,,,,,,,,,
540,Noale Dei Novale,45.550011,12.076960,540,,21,,,,,,,,,,,,
544,San Dona' Pergola,45.503067,12.267582,544,,48,,,,,,,,,,,,
545,27 Ottobre D1,45.492638,12.244191,545,,48,,,,,,,,,,,,
546,Cavarzere,45.132320,12.081792,546,,50,,,,,,,,,,,,
547,Cavanis Capolinea,45.482269,12.202824,547,,48,,,,,,,,,,,,
548,Visinoni Comboni,45.508514,12.208907,548,,48,,,,,,,,,,,,
549,Visinoni Comboni,45.509079,12.209819,549,,48,,,,,,,,,,,,
550,Visinoni Politi,45.511570,12.211370,550,,48,,,,,,,,,,,,
551,Visinoni Politi,45.511478,12.211080,551,,48,,,,,,,,,,,,
556,Noale Moro,45.545151,12.070570,556,,21,,,,,,,,,,,,
557,Noale Moro,45.545403,12.070512,557,,21,,,,,,,,,,,,
558,Noale Ospedale,45.552746,12.074716,558,,21,,,,,,,,,,,,
559,Noale Ospedale,45.552654,12.074863,559,,21,,,,,,,,,,,,
563,Dolo Scuole,45.429241,12.085977,563,,14,,,,,,,,,,,,
564,Padova Ospedale,45.404751,11.887017,564,,36,,,,,,,,,,,,
565,Padova Ospedale,45.404720,11.887340,565,,36,,,,,,,,,,,,
566,Padova Gozzi,45.410641,11.882615,566,,36,,,,,,,,,,,,
567,Padova Gozzi,45.411861,11.882432,567,,36,,,,,,,,,,,,
575,Dolo Bandiera,45.427475,12.092756,575,,14,,,,,,,,,,,,
576,Dolo Bandiera,45.427299,12.092950,576,,14,,,,,,,,,,,,
587,Trieste Stazione FS,45.147472,12.084516,587,,50,,,,,,,,,,,,
588,Trieste Stazione FS,45.147411,12.084445,588,,50,,,,,,,,,,,,
590,delle Messi Bissuola,45.494675,12.267968,590,,48,,,,,,,,,,,,
591,Mira Ponte delle Porte,45.437119,12.141646,591,,51,,,,,,,,,,,,
592,Mira Ponte delle Porte,45.437172,12.141994,592,,51,,,,,,,,,,,,
594,Salzano Oddo Stocco,45.520782,12.111100,594,,24,,,,,,,,,,,,
597,Sernaglia Dante,45.484440,12.236078,597,,48,,,,,,,,,,,,
598,Perarolo Danzica,45.423492,11.977926,598,,42,,,,,,,,,,,,
599,Mirano Paganini,45.487740,12.110414,599,,20,,,,,,,,,,,,
601,Mirano Scuola Mazzini,45.495209,12.103215,601,,53,,,,,,,,,,,,
602,Mirano Mariutto,45.495579,12.113679,602,,20,,,,,,,,,,,,
608,San Liberale Morante,45.550194,12.334437,608,,17,,,,,,,,,,,,
609,San Liberale Morante,45.550537,12.333158,609,,17,,,,,,,,,,,,
611,Giovannacci Ulloa,45.479015,12.229121,611,,48,,,,,,,,,,,,
612,Stazione MESTRE FS C1,45.481918,12.234921,612,,48,,,,,,,,,,,,
613,Favretti MESTRE FS C2,45.481770,12.234852,613,,48,,,,,,,,,,,,
614,27 Ottobre D6,45.490620,12.246958,614,,48,,,,,,,,,,,,
615,Carducci Pascoli,45.491085,12.239764,615,,48,,,,,,,,,,,,
616,MESTRE CENTRO B3,45.493397,12.246051,616,,48,,,,,,,,,,,,
617,Bottenigo Bottenigo,45.460548,12.219075,617,,48,,,,,,,,,,,,
620,Marghera Arduino,45.459183,12.212059,620,,48,,,,,,,,,,,,
621,Bottenigo Pinton,45.462059,12.215651,621,,48,,,,,,,,,,,,
622,Bottenigo Pinton,45.461872,12.215231,622,,48,,,,,,,,,,,,
623,Ca' Lin Castellana,45.530155,12.187778,623,,48,,,,,,,,,,,,
625,Mira Marinai d'Italia,45.432602,12.137022,625,,51,,,,,,,,,,,,
626,Mira Marinai d'Italia,45.432529,12.137461,626,,51,,,,,,,,,,,,
629,MESTRE CENTRO B5,45.493698,12.245646,629,,48,,,,,,,,,,,,
630,Azoto Sottana,45.465466,12.238242,630,,48,,,,,,,,,,,,
632,Terminal Ro-Port,45.426937,12.247677,632,,48,,,,,,,,,,,,
633,Correnti Capolinea,45.465778,12.222633,633,,48,,,,,,,,,,,,
637,Deposito della Fisica,45.446365,12.207115,637,,48,,,,,,,,,,,,
638,Deposito della Fisica,45.445965,12.206977,638,,48,,,,,,,,,,,,
640,Marsala Centro Don Vecchi,45.520893,12.229886,640,,48,,,,,,,,,,,,
641,Spinea San Remo,45.495647,12.156115,641,,27,,,,,,,,,,,,
642,Murano Distretto Sanitari,45.491623,12.155826,642,,27,,,,,,,,,,,,
646,MESTRE CENTRO B7,45.493145,12.245958,646,,48,,,,,,,,,,,,
649,Dolo Ca' Tron,45.427090,12.086675,649,,14,,,,,,,,,,,,
651,Dolo Ca' Tron,45.426937,12.086870,651,,14,,,,,,,,,,,,
652,Mirano Sport,45.495140,12.095000,652,,53,,,,,,,,,,,,
655,Salzano FS,45.533337,12.110776,655,,24,,,,,,,,,,,,
656,Salzano FS,45.533451,12.110638,656,,24,,,,,,,,,,,,
657,Preganziol Fratelli Cervi,45.606171,12.235945,657,,5,,,,,,,,,,,,
658,Preganziol Fratelli Cervi,45.605793,12.235718,658,,5,,,,,,,,,,,,
659,Preganziol Albrizzi,45.628525,12.239983,659,,5,,,,,,,,,,,,
660,Preganziol Albrizzi,45.628284,12.239436,660,,5,,,,,,,,,,,,
661,Treviso Pindemonte,45.646404,12.241695,661,,6,,,,,,,,,,,,
662,Treviso Pindemonte,45.645916,12.241440,662,,6,,,,,,,,,,,,
663,Treviso Loredan,45.654060,12.243163,663,,6,,,,,,,,,,,,
664,Treviso Loredan,45.654530,12.243343,664,,6,,,,,,,,,,,,
665,Treviso FS,45.660435,12.245282,665,,6,,,,,,,,,,,,
666,Treviso FS,45.660999,12.245698,666,,6,,,,,,,,,,,,
667,Preganziol Gabbin,45.601334,12.235251,667,,5,,,,,,,,,,,,
671,Preganziol  Bandiera,45.633823,12.239976,671,,5,,,,,,,,,,,,
672,Preganziol Bandiera,45.633949,12.240135,672,,5,,,,,,,,,,,,
674,Mogliano Zermanesa,45.560822,12.245300,674,,3,,,,,,,,,,,,
680,Ca' Solaro Osoppo,45.514515,12.272433,680,,48,,,,,,,,,,,,
681,Ca' Solaro Osoppo,45.514393,12.272618,681,,48,,,,,,,,,,,,
682,CA SOLARO PASQUALIGO,45.515633,12.269042,682,,48,,,,,,,,,,,,
683,Ca' Solaro Pasqualigo,45.515820,12.268337,683,,48,,,,,,,,,,,,
684,Vallon Borgoforte,45.520267,12.257017,684,,48,,,,,,,,,,,,
686,Pasqualigo Braies,45.513165,12.266774,686,,48,,,,,,,,,,,,
687,Pasqualigo Braies,45.512997,12.266531,687,,48,,,,,,,,,,,,
688,Vallon Forte Carpenedo,45.513184,12.255975,688,,48,,,,,,,,,,,,
689,Vallon Forte Carpenedo,45.513725,12.256521,689,,48,,,,,,,,,,,,
690,Pascqualigo Ortisei,45.510899,12.265378,690,,48,,,,,,,,,,,,
691,Pascqualigo Ortisei,45.510944,12.265293,691,,48,,,,,,,,,,,,
692,Monte Celo FAVARO,45.505863,12.291429,692,,48,,,,,,,,,,,,
693,Triestina Monte Cimon,45.505322,12.286060,693,,48,,,,,,,,,,,,
698,Noale De Pol,45.558147,12.072524,698,,21,,,,,,,,,,,,
700,Meucci Alto Adige,45.336643,12.021311,700,,8,,,,,,,,,,,,
701,Meucci Alto Adige,45.336456,12.021157,701,,8,,,,,,,,,,,,
702,Ca' Solaro Chiesa,45.522961,12.267256,702,,48,,,,,,,,,,,,
704,Ca' Solaro,45.520660,12.267758,704,,48,,,,,,,,,,,,
705,Vallon Valdemare,45.518391,12.257019,705,,48,,,,,,,,,,,,
706,Vallon Valdemare,45.518505,12.257109,706,,48,,,,,,,,,,,,
707,Vallon De Nicola,45.510567,12.255257,707,,48,,,,,,,,,,,,
708,Vallon De Nicola,45.510742,12.255416,708,,48,,,,,,,,,,,,
709,Ca' Solaro Ca' Rezzonico,45.512531,12.278343,709,,48,,,,,,,,,,,,
710,Ca' Solaro Ca' Rezzonico,45.512375,12.279002,710,,48,,,,,,,,,,,,
711,Scorze' Cercariolo,45.570953,12.111180,711,,26,,,,,,,,,,,,
712,Ca' Noghera Casino',45.520409,12.357707,712,,48,,,,,,,,,,,,
715,Casino',45.520851,12.358150,715,,48,,,,,,,,,,,,
720,Ca Solaro Tarcento,45.526077,12.268476,720,,48,,,,,,,,,,,,
737,Scorze' Scandolara,45.609871,12.112175,737,,26,,,,,,,,,,,,
741,Marcon Vittoria,45.564548,12.305342,741,,17,,,,,,,,,,,,
742,Marcon Vittoria,45.565170,12.305590,742,,17,,,,,,,,,,,,
743,Stigliano,45.524582,12.048023,743,,25,,,,,,,,,,,,
744,Stigliano,45.525078,12.048432,744,,25,,,,,,,,,,,,
745,Marcon Repubblica,45.554443,12.294788,745,,17,,,,,,,,,,,,
746,Marcon Repubblica,45.554592,12.294367,746,,17,,,,,,,,,,,,
752,Tito Selvanese,45.513565,12.202495,752,,48,,,,,,,,,,,,
753,Tito Selvanese,45.513569,12.202657,753,,48,,,,,,,,,,,,
768,SME,45.416962,12.368303,768,,1,,,,,,,,,,,,
769,SME,45.417160,12.368420,769,,1,,,,,,,,,,,,
770,Vigonovo Mazzini,45.389496,12.002057,770,,40,,,,,,,,,,,,
771,Vigonovo Mazzini,45.389221,12.002515,771,,40,,,,,,,,,,,,
772,Vigonovo Galilei,45.393105,11.992566,772,,40,,,,,,,,,,,,
773,Vigonovo Galilei,45.393112,11.992421,773,,40,,,,,,,,,,,,
778,Tombelle Tombelle,45.394756,11.990016,778,,40,,,,,,,,,,,,
785,Dolo Scuole,45.429344,12.086911,785,,14,,,,,,,,,,,,
794,Quarto d'Altino FS,45.574986,12.365162,794,,23,,,,,,,,,,,,
795,Quarto d'Altino Heraclia,45.579559,12.363857,795,,23,,,,,,,,,,,,
796,Quarto d'Altino Heraclia,45.579910,12.364140,796,,23,,,,,,,,,,,,
797,Park Petroli,45.465397,12.266901,797,,48,,,,,,,,,,,,
804,Grignella Passetto,45.098404,12.058095,804,,50,,,,,,,,,,,,
805,Grignella Passetto,45.098385,12.058053,805,,50,,,,,,,,,,,,
1004,Torino Rossetto,45.480419,12.249927,1004,,48,,,,,,,,,,,,
1005,Torino Universita',45.478725,12.253057,1005,,48,,,,,,,,,,,,
1007,Paganello Ticozzi,45.477047,12.250580,1007,,48,,,,,,,,,,,,
1008,Ca' Marcello Rossetto,45.478745,12.246355,1008,,48,,,,,,,,,,,,
1009,Ca' Marcello Cappuccina,45.481583,12.237988,1009,,48,,,,,,,,,,,,
1011,Corso del Popolo Torino,45.484554,12.241048,1011,,48,,,,,,,,,,,,
1012,Corso del Popolo Milano,45.487579,12.242674,1012,,48,,,,,,,,,,,,
1013,Corso del Popolo Mestrina,45.490269,12.244370,1013,,48,,,,,,,,,,,,
1017,Castellana Santa Chiara,45.498108,12.232547,1017,,48,,,,,,,,,,,,
1023,Cappuccina Sernaglia,45.483490,12.236246,1023,,48,,,,,,,,,,,,
1024,Trento Fagare',45.483704,12.228027,1024,,48,,,,,,,,,,,,
1025,Trento Podgora,45.486652,12.224992,1025,,48,,,,,,,,,,,,
1026,Trento Gazzera Alta,45.489815,12.223766,1026,,48,,,,,,,,,,,,
1027,Olmo Vittorio Veneto,45.518635,12.190948,1027,,18,,,,,,,,,,,,
1029,Miranese Avanti,45.484577,12.194864,1029,,48,,,,,,,,,,,,
1030,Miranese Ivancich,45.484768,12.198072,1030,,48,,,,,,,,,,,,
1031,Miranese Pergine,45.484840,12.203081,1031,,48,,,,,,,,,,,,
1032,Miranese Piemonte,45.484978,12.209605,1032,,48,,,,,,,,,,,,
1033,Miranese Lazio,45.485275,12.213185,1033,,48,,,,,,,,,,,,
1034,Miranese Calucci,45.485577,12.217137,1034,,48,,,,,,,,,,,,
1035,Miranese Giustizia,45.485817,12.220169,1035,,48,,,,,,,,,,,,
1036,Miranese Monteverdi,45.490463,12.226277,1036,,48,,,,,,,,,,,,
1037,Miranese Vivaldi,45.492153,12.230565,1037,,48,,,,,,,,,,,,
1039,Piave Puccini,45.490479,12.235325,1039,,48,,,,,,,,,,,,
1041,Piave Fiume,45.487808,12.234307,1041,,48,,,,,,,,,,,,
1042,Piave Podgora,45.484692,12.233062,1042,,48,,,,,,,,,,,,
1045,Brendole Promontore,45.498444,12.218705,1045,,48,,,,,,,,,,,,
1046,Brendole Arsa,45.496498,12.219078,1046,,48,,,,,,,,,,,,
1047,Asseggiano Chiesa,45.497227,12.183168,1047,,48,,,,,,,,,,,,
1048,Asseggiano Da Todi,45.496632,12.184809,1048,,48,,,,,,,,,,,,
1049,Asseggiano Euganea,45.495235,12.190313,1049,,48,,,,,,,,,,,,
1050,Asseggiano Marzabotto,45.494030,12.195477,1050,,48,,,,,,,,,,,,
1052,Asseggiano Volta,45.492748,12.207061,1052,,48,,,,,,,,,,,,
1053,Asseggiano Morin,45.492889,12.213573,1053,,48,,,,,,,,,,,,
1054,Asseggiano Pirano,45.494106,12.216421,1054,,48,,,,,,,,,,,,
1055,Gazzera Alta Chiesa,45.494740,12.218385,1055,,48,,,,,,,,,,,,
1060,Ca' Lin Pitagora,45.532845,12.190242,1060,,48,,,,,,,,,,,,
1061,Ca' Lin Gatta,45.536594,12.191052,1061,,48,,,,,,,,,,,,
1062,Maerne Mulino,45.530495,12.152020,1062,,18,,,,,,,,,,,,
1063,Gatta Protagora,45.537643,12.194248,1063,,48,,,,,,,,,,,,
1064,Gatta Immacolata,45.535973,12.204330,1064,,48,,,,,,,,,,,,
1065,Gatta Santa Lucia,45.534939,12.207182,1065,,48,,,,,,,,,,,,
1066,GATTA 90,45.534428,12.213589,1066,,48,,,,,,,,,,,,
1067,Gatta Scaramuzza,45.533848,12.218481,1067,,48,,,,,,,,,,,,
1068,Gatta Scarante,45.533821,12.222194,1068,,48,,,,,,,,,,,,
1069,Gatta Verci,45.533726,12.226693,1069,,48,,,,,,,,,,,,
1072,Terraglio Gatta,45.535278,12.239220,1072,,48,,,,,,,,,,,,
1073,Terraglio Nigra,45.530159,12.238908,1073,,48,,,,,,,,,,,,
1074,Terraglio Ca' Sagredo,45.526512,12.238602,1074,,48,,,,,,,,,,,,
1075,Terraglio Favorita,45.523830,12.238517,1075,,48,,,,,,,,,,,,
1076,Terraglio Terraglietto,45.517578,12.238263,1076,,48,,,,,,,,,,,,
1077,Terraglio Villa Salus,45.513790,12.238164,1077,,48,,,,,,,,,,,,
1078,Terraglio Borgo Pezzana,45.508331,12.238113,1078,,48,,,,,,,,,,,,
1079,Terraglio Peschiera,45.505005,12.237813,1079,,48,,,,,,,,,,,,
1080,Terraglio Teano,45.501881,12.237508,1080,,48,,,,,,,,,,,,
1083,Martellago Delle Motte,45.542233,12.154095,1083,,18,,,,,,,,,,,,
1084,San Rocco Bruno,45.495525,12.242045,1084,,48,,,,,,,,,,,,
1086,Mattuglie Dignano,45.490486,12.216045,1086,,48,,,,,,,,,,,,
1087,Martellago Pree,45.538445,12.175379,1087,,18,,,,,,,,,,,,
1088,Trivignano Park P14,45.534565,12.180235,1088,,48,,,,,,,,,,,,
1089,Trivignano Botticelli,45.532555,12.182811,1089,,48,,,,,,,,,,,,
1090,Trivignano Park B,45.528473,12.188973,1090,,48,,,,,,,,,,,,
1091,Trivignano Centro,45.527294,12.189970,1091,,48,,,,,,,,,,,,
1092,Trivignano Gozzoli,45.525188,12.192889,1092,,48,,,,,,,,,,,,
1093,Trivignano Lotto,45.523197,12.196072,1093,,48,,,,,,,,,,,,
1094,Zelarino Parolari,45.517307,12.204027,1094,,48,,,,,,,,,,,,
1095,Zelarino Municipio,45.514694,12.208107,1095,,48,,,,,,,,,,,,
1096,Zelarino Chiesa,45.512535,12.211364,1096,,48,,,,,,,,,,,,
1097,Zelarino Carpaccio,45.510887,12.213987,1097,,48,,,,,,,,,,,,
1098,Castellana Marzenego,45.506756,12.217916,1098,,48,,,,,,,,,,,,
1099,Castellana Bellotto,45.503105,12.221205,1099,,48,,,,,,,,,,,,
1100,Castellana Piazzetta,45.500656,12.225672,1100,,48,,,,,,,,,,,,
1101,Castellana Cipressina,45.499344,12.227731,1101,,48,,,,,,,,,,,,
1102,Martellago Fornace,45.541012,12.170919,1102,,18,,,,,,,,,,,,
1103,Circonvallazione Olimpia,45.496002,12.235929,1103,,48,,,,,,,,,,,,
1110,Gaggio Vivaldi,45.551788,12.310620,1110,,17,,,,,,,,,,,,
1112,San Liberale Nievo,45.549183,12.337731,1112,,17,,,,,,,,,,,,
1113,Marcon Stadio,45.556206,12.304449,1113,,17,,,,,,,,,,,,
1114,Marcon Perosi,45.557949,12.309140,1114,,17,,,,,,,,,,,,
1118,Mogliano Liceo,45.557785,12.244257,1118,,3,,,,,,,,,,,,
1121,Orlanda Pinerolo,45.500774,12.322498,1121,,48,,,,,,,,,,,,
1122,Mazzocco,45.553188,12.267707,1122,,3,,,,,,,,,,,,
1127,Marcon  Cultura,45.555660,12.298670,1127,,17,,,,,,,,,,,,
1128,Marcon Oberdan,45.559021,12.298720,1128,,17,,,,,,,,,,,,
1130,Marcon Marmolada,45.562870,12.298950,1130,,17,,,,,,,,,,,,
1131,Marcon Municipio,45.554203,12.299155,1131,,17,,,,,,,,,,,,
1133,Marcon Altinia,45.542992,12.304640,1133,,17,,,,,,,,,,,,
1139,Gaggio Cimitero,45.553761,12.318643,1139,,17,,,,,,,,,,,,
1140,Gaggio,45.552212,12.316463,1140,,17,,,,,,,,,,,,
1141,Gaggio Fermi,45.551975,12.314203,1141,,17,,,,,,,,,,,,
1142,Marcon Mattei,45.547352,12.306408,1142,,17,,,,,,,,,,,,
1143,Marcon della Stazione,45.548595,12.308767,1143,,17,,,,,,,,,,,,
1150,Pertini Foscari,45.490711,12.269712,1150,,48,,,,,,,,,,,,
1151,Chioggia Naccari,45.216145,12.273787,1151,,2,,,,,,,,,,,,
1160,Pasqualigo Martiri,45.509491,12.262626,1160,,48,,,,,,,,,,,,
1171,Forte Marghera Gerlin,45.488033,12.250199,1171,,48,,,,,,,,,,,,
1172,Forte Marghera Hermada,45.484352,12.253619,1172,,48,,,,,,,,,,,,
1173,Forte Marghera Millosevic,45.482182,12.255685,1173,,48,,,,,,,,,,,,
1174,Forte Marghera Moretti,45.481186,12.256612,1174,,48,,,,,,,,,,,,
1175,Forte Marghera Aretusa,45.478436,12.260922,1175,,48,,,,,,,,,,,,
1177,Orlanda Appia,45.479897,12.270549,1177,,48,,,,,,,,,,,,
1178,Orlanda Cavergnago,45.483082,12.276173,1178,,48,,,,,,,,,,,,
1179,Orlanda Sabbadino,45.484619,12.283162,1179,,48,,,,,,,,,,,,
1180,Orlanda Bagaron,45.485500,12.287965,1180,,48,,,,,,,,,,,,
1181,Orlanda Tiburtina,45.486523,12.293112,1181,,48,,,,,,,,,,,,
1182,Orlanda Casilina,45.488739,12.301052,1182,,48,,,,,,,,,,,,
1183,Orlanda Don Vecchi,45.490414,12.303880,1183,,48,,,,,,,,,,,,
1184,Orlanda Centro Ippico,45.494228,12.311486,1184,,48,,,,,,,,,,,,
1185,ORLANDA 200,45.496799,12.315714,1185,,48,,,,,,,,,,,,
1186,Orlanda Piovega,45.498951,12.319393,1186,,48,,,,,,,,,,,,
1188,Triestina Tessera,45.504227,12.328386,1188,,48,,,,,,,,,,,,
1192,Triestina Zorzi,45.508362,12.334800,1192,,48,,,,,,,,,,,,
1193,Triestina Zuliani,45.512024,12.343299,1193,,48,,,,,,,,,,,,
1194,Triestina Laguna,45.512245,12.345228,1194,,48,,,,,,,,,,,,
1195,TRIESTINA AERONAVALI,45.514240,12.351945,1195,,48,,,,,,,,,,,,
1196,Triestina Paliaghetta,45.517452,12.354816,1196,,48,,,,,,,,,,,,
1198,Tessera Scuole,45.503754,12.324256,1198,,48,,,,,,,,,,,,
1199,TRIESTINA FORTE ROSSAROL,45.503971,12.320505,1199,,48,,,,,,,,,,,,
1200,Triestina Torre,45.504852,12.310219,1200,,48,,,,,,,,,,,,
1201,Triestina Piovega,45.503487,12.301083,1201,,48,,,,,,,,,,,,
1202,Triestina Lazzaretto,45.504002,12.293779,1202,,48,,,,,,,,,,,,
1204,Triestina Prabello,45.505352,12.287986,1204,,48,,,,,,,,,,,,
1205,Triestina Altinia,45.504784,12.283273,1205,,48,,,,,,,,,,,,
1206,Gobbi Vallenari,45.501816,12.284208,1206,,48,,,,,,,,,,,,
1207,Gobbi Don Bosco,45.497498,12.286102,1207,,48,,,,,,,,,,,,
1208,Gobbi Ca' Dolfin,45.495808,12.287845,1208,,48,,,,,,,,,,,,
1209,Gobbi Mandarini,45.493668,12.291708,1209,,48,,,,,,,,,,,,
1210,Gobbi Mirtilli,45.491375,12.293889,1210,,48,,,,,,,,,,,,
1211,Gobbi Orlanda,45.487259,12.295084,1211,,48,,,,,,,,,,,,
1212,Passo Campalto Orlanda,45.485989,12.295851,1212,,48,,,,,,,,,,,,
1213,Sabbadino Passo Campalto,45.482819,12.296052,1213,,48,,,,,,,,,,,,
1215,Sabbadino Bagaron,45.481956,12.292153,1215,,48,,,,,,,,,,,,
1216,Sabbadino Laguna,45.481869,12.287725,1216,,48,,,,,,,,,,,,
1220,Cortivo Tombelle,45.480255,12.285041,1220,,48,,,,,,,,,,,,
1221,Altinia Berizzi,45.537876,12.300056,1221,,48,,,,,,,,,,,,
1223,Dese Cicogne,45.531502,12.303248,1223,,48,,,,,,,,,,,,
1224,Dese Centro,45.528191,12.304140,1224,,48,,,,,,,,,,,,
1225,Dese Litomarino,45.526299,12.302651,1225,,48,,,,,,,,,,,,
1226,Altinia 181,45.526115,12.296453,1226,,48,,,,,,,,,,,,
1227,Altinia Forte Cosenz,45.522308,12.288400,1227,,48,,,,,,,,,,,,
1228,Altinia Ca' Badoera,45.516346,12.284018,1228,,48,,,,,,,,,,,,
1230,Altinia Ca' Solaro,45.511269,12.282825,1230,,48,,,,,,,,,,,,
1231,Altinia Indri,45.509762,12.282420,1231,,48,,,,,,,,,,,,
1232,Altinia San Pietro,45.507832,12.282190,1232,,48,,,,,,,,,,,,
1233,Altinia Favaro Municipio,45.505142,12.282380,1233,,48,,,,,,,,,,,,
1241,San Dona' Falzarego,45.504585,12.253329,1241,,48,,,,,,,,,,,,
1242,Garibaldi  Carpenedo,45.504478,12.250031,1242,,48,,,,,,,,,,,,
1243,Garibaldi Ognissanti,45.499638,12.246647,1243,,48,,,,,,,,,,,,
1244,Garibaldi Giardini,45.502056,12.248346,1244,,48,,,,,,,,,,,,
1245,Garibaldi Municipio,45.496693,12.244557,1245,,48,,,,,,,,,,,,
1256,Marghera Cimitero,45.470470,12.207802,1256,,48,,,,,,,,,,,,
1257,Pertini Vespucci,45.482254,12.269158,1257,,48,,,,,,,,,,,,
1258,Pertini Gavagnin,45.483166,12.267232,1258,,48,,,,,,,,,,,,
1259,Pertini Chiesa,45.486504,12.270634,1259,,48,,,,,,,,,,,,
1260,Pertini Foscari,45.491230,12.269165,1260,,48,,,,,,,,,,,,
1264,Bissuola Varrone,45.493420,12.265827,1264,,48,,,,,,,,,,,,
1265,Bissuola Esiodo,45.494171,12.264050,1265,,48,,,,,,,,,,,,
1267,Casona Marziale,45.497375,12.265307,1267,,48,,,,,,,,,,,,
1268,Casona Bissuola,45.495094,12.263401,1268,,48,,,,,,,,,,,,
1269,Bissuola Tevere,45.493809,12.260326,1269,,48,,,,,,,,,,,,
1270,Bissuola Cadorna,45.494080,12.256017,1270,,48,,,,,,,,,,,,
1271,Bissuola Pisani,45.495144,12.252748,1271,,48,,,,,,,,,,,,
1272,Bissuola Colombo,45.495525,12.249144,1272,,48,,,,,,,,,,,,
1278,Tevere Parco,45.496780,12.258896,1278,,48,,,,,,,,,,,,
1279,Tevere Baglioni,45.497974,12.256999,1279,,48,,,,,,,,,,,,
1280,Tevere Parco,45.496452,12.259314,1280,,48,,,,,,,,,,,,
1284,Don Sturzo Pasqualigo,45.507298,12.260911,1284,,48,,,,,,,,,,,,
1285,Pasqualigo Monte Rua,45.505650,12.260811,1285,,48,,,,,,,,,,,,
1286,Vespucci San Giuseppe,45.480186,12.267075,1286,,48,,,,,,,,,,,,
1287,Vespucci Boerio,45.483715,12.262703,1287,,48,,,,,,,,,,,,
1288,Vespucci Gritti,45.486027,12.259976,1288,,48,,,,,,,,,,,,
1289,Vespucci Cattaneo,45.491833,12.253607,1289,,48,,,,,,,,,,,,
1290,Vespucci Pigafetta,45.493496,12.252609,1290,,48,,,,,,,,,,,,
1291,Vespucci Garigliano,45.495968,12.251262,1291,,48,,,,,,,,,,,,
1292,Fradeletto Cecchini,45.497875,12.248275,1292,,48,,,,,,,,,,,,
1296,Fornase Perugia,45.477638,12.158228,1296,,27,,,,,,,,,,,,
1297,Matteotti Cimitero,45.481224,12.161765,1297,,27,,,,,,,,,,,,
1301,Le Crete,45.566448,12.360200,1301,,23,,,,,,,,,,,,
1302,Le Crete Canale,45.560265,12.352504,1302,,17,,,,,,,,,,,,
1303,Le Crete Canale,45.560249,12.352340,1303,,17,,,,,,,,,,,,
1304,Spinea Alfieri,45.489956,12.170092,1304,,27,,,,,,,,,,,,
1305,Spinea Sanremo,45.494801,12.158336,1305,,27,,,,,,,,,,,,
1306,Spinea Orgnano,45.496033,12.152620,1306,,27,,,,,,,,,,,,
1307,Liberta' Costituzione,45.486305,12.147098,1307,,27,,,,,,,,,,,,
1308,Spinea Desenzano,45.488369,12.148352,1308,,27,,,,,,,,,,,,
1309,Le Crete,45.567257,12.360891,1309,,23,,,,,,,,,,,,
1310,Spinea Pozzuoli,45.488811,12.150146,1310,,27,,,,,,,,,,,,
1311,Spinea Villaggio Fiori,45.490803,12.151918,1311,,27,,,,,,,,,,,,
1312,Spinea Giorgione,45.486767,12.179468,1312,,27,,,,,,,,,,,,
1313,Miranese Selenia,45.485466,12.182605,1313,,48,,,,,,,,,,,,
1314,Miranese San Giorgio,45.484512,12.189278,1314,,48,,,,,,,,,,,,
1315,Trieste Miranese,45.482979,12.192924,1315,,48,,,,,,,,,,,,
1316,Trieste Robinie,45.477375,12.198413,1316,,48,,,,,,,,,,,,
1317,Spinea Pozzuoli,45.489040,12.150195,1317,,27,,,,,,,,,,,,
1318,Villabona Bottenigo,45.473965,12.201138,1318,,48,,,,,,,,,,,,
1319,Villabona 87,45.473225,12.199927,1319,,48,,,,,,,,,,,,
1320,Villabona Pioppi,45.473980,12.196774,1320,,48,,,,,,,,,,,,
1321,Villabona Morari,45.473312,12.195323,1321,,48,,,,,,,,,,,,
1322,Villabona Ontani,45.472488,12.192365,1322,,48,,,,,,,,,,,,
1325,Liberta' Commercio,45.479408,12.239888,1325,,48,,,,,,,,,,,,
1326,Trieste Catene,45.477264,12.202864,1326,,48,,,,,,,,,,,,
1327,Trieste Parco,45.477203,12.205677,1327,,48,,,,,,,,,,,,
1328,Trieste Bosco,45.476967,12.209902,1328,,48,,,,,,,,,,,,
1329,Trieste Eraclea,45.476742,12.215437,1329,,48,,,,,,,,,,,,
1330,Calvi Parmesan,45.478111,12.219847,1330,,48,,,,,,,,,,,,
1331,Paolucci Longhena,45.479740,12.224620,1331,,48,,,,,,,,,,,,
1336,Brunacci Monzani,45.463158,12.216475,1336,,48,,,,,,,,,,,,
1338,Pasini Fratellanza,45.461926,12.221478,1338,,48,,,,,,,,,,,,
1340,Beccaria Correnti,45.466072,12.223055,1340,,48,,,,,,,,,,,,
1348,Canal Leone,45.476574,12.222103,1348,,48,,,,,,,,,,,,
1349,Paleocapa Parmesan,45.476936,12.220149,1349,,48,,,,,,,,,,,,
1351,Beccaria Canetti,45.474491,12.219595,1351,,48,,,,,,,,,,,,
1352,Beccaria Oroboni,45.471882,12.220418,1352,,48,,,,,,,,,,,,
1353,Beccaria Chiesa,45.469616,12.221564,1353,,48,,,,,,,,,,,,
1355,Risorgimento Cimitero,45.486824,12.189161,1355,,48,,,,,,,,,,,,
1356,Risorgimento Sestella,45.488556,12.189729,1356,,48,,,,,,,,,,,,
1357,Risorgimento Carnia,45.491550,12.190726,1357,,48,,,,,,,,,,,,
1358,Risorgimento Asseggiano,45.493958,12.191516,1358,,48,,,,,,,,,,,,
1359,Olmo Giovanni XXIII,45.517330,12.186036,1359,,18,,,,,,,,,,,,
1360,Olmo Minzoni,45.518398,12.182450,1360,,18,,,,,,,,,,,,
1361,Olmo Papa Luciani,45.519093,12.178519,1361,,18,,,,,,,,,,,,
1362,Olmo Calvi,45.520351,12.172611,1362,,18,,,,,,,,,,,,
1363,Maerne Cimitero,45.521523,12.166875,1363,,18,,,,,,,,,,,,
1364,Maerne Tasso,45.523064,12.162280,1364,,18,,,,,,,,,,,,
1365,Maerne Chiesa,45.523693,12.158670,1365,,18,,,,,,,,,,,,
1366,Maerne Rialto,45.527245,12.157217,1366,,18,,,,,,,,,,,,
1368,Spinea Rossignago,45.491890,12.163368,1368,,27,,,,,,,,,,,,
1370,Corezzola Sasso,45.236298,12.023417,1370,,35,,,,,,,,,,,,
1371,Martellago Grimani,45.545868,12.158890,1371,,18,,,,,,,,,,,,
1372,MartellagoTrento,45.543552,12.167504,1372,,18,,,,,,,,,,,,
1373,Martellago Verdi,45.545475,12.163157,1373,,18,,,,,,,,,,,,
1374,Martellago Vittoria,45.546474,12.157956,1374,,18,,,,,,,,,,,,
1375,Rampa Cavalcavia Vempa,45.482212,12.237875,1375,,48,,,,,,,,,,,,
1376,Cavalcavia Vempa,45.482224,12.237778,1376,,48,,,,,,,,,,,,
1380,Liberta' Fincantieri,45.474747,12.252551,1380,,48,,,,,,,,,,,,
1381,Liberta' Porto Marghera,45.471806,12.257185,1381,,48,,,,,,,,,,,,
1382,Liberta' Righi,45.470127,12.263211,1382,,48,,,,,,,,,,,,
1392,Liberta' Santa Chiara,45.441013,12.315592,1392,,1,,,,,,,,,,,,
1394,Tronchetto Mercato,45.442757,12.308137,1394,,1,,,,,,,,,,,,
1395,Tronchetto Vaporetti,45.440910,12.305601,1395,,1,,,,,,,,,,,,
1398,Ospedale dell'Angelo SFMR,45.513096,12.225263,1398,,48,,,,,,,,,,,,
1399,Ospedale dell'Angelo SFMR,45.513493,12.225496,1399,,48,,,,,,,,,,,,
1400,Ospedale dell'Angelo,45.512947,12.224376,1400,,48,,,,,,,,,,,,
1401,Ospedale dell'Angelo,45.512955,12.224361,1401,,48,,,,,,,,,,,,
1405,Ilaria Alpi SFMR ospedale,45.513329,12.226008,1405,,48,,,,,,,,,,,,
1406,Bandiera Cruto,45.462139,12.223854,1406,,48,,,,,,,,,,,,
1407,Bandiera Ghega,45.464420,12.225195,1407,,48,,,,,,,,,,,,
1408,Bandiera Tommaseo,45.468189,12.227412,1408,,48,,,,,,,,,,,,
1410,Bandiera Cantore,45.472797,12.230103,1410,,48,,,,,,,,,,,,
1411,Bandiera Durando,45.477715,12.232922,1411,,48,,,,,,,,,,,,
1412,Bandiera Pila,45.479816,12.234122,1412,,48,,,,,,,,,,,,
1414,Padana Avena,45.456551,12.218278,1414,,48,,,,,,,,,,,,
1415,Malcontenta Padana,45.451160,12.214229,1415,,48,,,,,,,,,,,,
1417,Malcontenta Chimica,45.446590,12.211997,1417,,48,,,,,,,,,,,,
1419,Malcontenta Chiesa,45.437004,12.205185,1419,,48,,,,,,,,,,,,
1420,Stazione Marcon SFMR,45.545631,12.314238,1420,,17,,,,,,,,,,,,
1421,Moranzani Elettronica,45.425190,12.247120,1421,,48,,,,,,,,,,,,
1422,Moranzani Conca,45.427986,12.240744,1422,,48,,,,,,,,,,,,
1423,Moranzani 42,45.428219,12.232735,1423,,48,,,,,,,,,,,,
1424,Moranzani 32,45.429810,12.220215,1424,,48,,,,,,,,,,,,
1425,Malcontenta Scuole,45.435181,12.209835,1425,,48,,,,,,,,,,,,
1426,Malcontenta Fimon,45.438805,12.199910,1426,,48,,,,,,,,,,,,
1429,Malcontenta Erba,45.445660,12.194551,1429,,48,,,,,,,,,,,,
1430,Stazione Marcon SFMR,45.545250,12.313890,1430,,17,,,,,,,,,,,,
1431,Marcon Mattei,45.549049,12.310355,1431,,17,,,,,,,,,,,,
1432,Marcon Mattei,45.548851,12.310360,1432,,17,,,,,,,,,,,,
1433,San Liberale Praello,45.547981,12.330434,1433,,17,,,,,,,,,,,,
1434,Ca' Sabbioni Zorzi,45.456539,12.180278,1434,,48,,,,,,,,,,,,
1435,Ca' Sabbioni Padana,45.454048,12.179590,1435,,48,,,,,,,,,,,,
1436,Padana Civico 338,45.451546,12.182845,1436,,48,,,,,,,,,,,,
1437,Padana Stazione,45.448456,12.193131,1437,,48,,,,,,,,,,,,
1438,Padana delle Trote,45.448696,12.199865,1438,,48,,,,,,,,,,,,
1439,Padana del Luccio,45.449139,12.203435,1439,,48,,,,,,,,,,,,
1442,Elettronica Silos,45.434189,12.217272,1442,,48,,,,,,,,,,,,
1444,Elettronica  Stabilimento,45.429844,12.235251,1444,,48,,,,,,,,,,,,
1445,Elettronica  9,45.429138,12.243323,1445,,48,,,,,,,,,,,,
1447,Elettronica Centrale,45.428638,12.248438,1447,,48,,,,,,,,,,,,
1448,San Liberale Praello,45.548141,12.330350,1448,,17,,,,,,,,,,,,
1450,Chimica Meccanica,45.444111,12.214861,1450,,48,,,,,,,,,,,,
1451,Chimica Ingresso 4,45.446571,12.225547,1451,,48,,,,,,,,,,,,
1452,Chimica Ingresso 5,45.448757,12.232399,1452,,48,,,,,,,,,,,,
1453,Chimica Ingresso 7,45.448940,12.236903,1453,,48,,,,,,,,,,,,
1459,Azoto Macchine,45.473934,12.239227,1459,,48,,,,,,,,,,,,
1465,Delle Macchine Azoto,45.474728,12.238167,1465,,48,,,,,,,,,,,,
1477,Treviso San Lazzaro,45.651772,12.242383,1477,,6,,,,,,,,,,,,
1478,Treviso San Lazzaro,45.651787,12.242232,1478,,6,,,,,,,,,,,,
1479,Treviso San Zeno,45.656609,12.244804,1479,,6,,,,,,,,,,,,
1480,Treviso San Zeno,45.656513,12.244918,1480,,6,,,,,,,,,,,,
1481,Oriago Ferrovia,45.454491,12.173280,1481,,19,,,,,,,,,,,,
1482,Mira Egeo,45.430710,12.140333,1482,,51,,,,,,,,,,,,
1483,Mira Egeo,45.431168,12.140111,1483,,51,,,,,,,,,,,,
1485,Risorgimento Miranese,45.485134,12.187462,1485,,48,,,,,,,,,,,,
1487,Ca' Lin Eraclito,45.535576,12.191351,1487,,48,,,,,,,,,,,,
1495,Galta Argine sinistro,45.389023,12.017714,1495,,40,,,,,,,,,,,,
1946,Galta Argine Sinistro,45.388565,12.017741,1946,,40,,,,,,,,,,,,
1947,Camponogara  47,45.383659,12.086089,1947,,16,,,,,,,,,,,,
1948,Camponogara  47,45.383595,12.086478,1948,,16,,,,,,,,,,,,
2001,Passetto Campelli,45.095409,12.056886,2001,,43,,,,,,,,,,,,
2002,Adria Sabbioni,45.082054,12.058424,2002,,43,,,,,,,,,,,,
2003,Adria Bindola,45.065819,12.057814,2003,,43,,,,,,,,,,,,
2004,Adria Sabbioni,45.082096,12.058523,2004,,43,,,,,,,,,,,,
2005,Adria Campelli,45.095024,12.057078,2005,,43,,,,,,,,,,,,
2006,Adria Bindola,45.065479,12.057983,2006,,43,,,,,,,,,,,,
2007,Grignella Strada Poli,45.072083,12.099437,2007,,50,,,,,,,,,,,,
2008,Cavarzere 60,45.087261,12.109077,2008,,50,,,,,,,,,,,,
2010,Cavarzere Grignella,45.076809,12.092009,2010,,50,,,,,,,,,,,,
2011,Cavarzere Passetto,45.102863,12.059725,2011,,50,,,,,,,,,,,,
2012,Cavarzere Passetto,45.102821,12.059798,2012,,50,,,,,,,,,,,,
2013,Cavarzere Botta,45.110889,12.068581,2013,,50,,,,,,,,,,,,
2014,Cavarzere Botta,45.110981,12.068840,2014,,50,,,,,,,,,,,,
2015,Cavarzere Ca' Labia,45.125759,12.076975,2015,,50,,,,,,,,,,,,
2016,Cavarzere Ca' Labia,45.125629,12.076778,2016,,50,,,,,,,,,,,,
2017,Cavarzere Margherita,45.130688,12.079006,2017,,50,,,,,,,,,,,,
2018,Cavarzere Margherita,45.130814,12.078732,2018,,50,,,,,,,,,,,,
2019,Localita' Lezze,45.131283,12.041371,2019,,45,,,,,,,,,,,,
2020,Localita' Lezze,45.131348,12.041152,2020,,45,,,,,,,,,,,,
2021,Ballo' Centro,45.459824,12.068157,2021,,54,,,,,,,,,,,,
2022,Ballo' Centro,45.459759,12.068514,2022,,54,,,,,,,,,,,,
2023,Localita' Bosconfondi,45.126289,12.031471,2023,,45,,,,,,,,,,,,
2024,Localita' Bosconfondi,45.126080,12.031271,2024,,45,,,,,,,,,,,,
2025,Botti Barbarighe,45.118835,12.026223,2025,,45,,,,,,,,,,,,
2026,Localita' Giaron,45.134857,12.022066,2026,,45,,,,,,,,,,,,
2027,Localita' Giaron,45.134945,12.022015,2027,,45,,,,,,,,,,,,
2028,Pettorazza San Girolamo,45.134758,11.979781,2028,,45,,,,,,,,,,,,
2029,Pettorazza Santuario,45.134781,11.979123,2029,,45,,,,,,,,,,,,
2030,Pettorazza,45.135288,11.990258,2030,,45,,,,,,,,,,,,
2031,Pettorazza,45.135410,11.990299,2031,,45,,,,,,,,,,,,
2035,Monte Grappa Ponte,45.139229,12.081471,2035,,50,,,,,,,,,,,,
2036,Monte Grappa Ponte,45.139168,12.081438,2036,,50,,,,,,,,,,,,
2037,Monte Grappa Piovese,45.141338,12.070549,2037,,50,,,,,,,,,,,,
2038,Monte Grappa Piovese,45.141399,12.070472,2038,,50,,,,,,,,,,,,
2039,Cavarzere Pontenovo,45.142323,12.071579,2039,,50,,,,,,,,,,,,
2040,Cavarzere Trieste,45.142685,12.085375,2040,,50,,,,,,,,,,,,
2041,Villaggio Busonera,45.143028,12.095436,2041,,50,,,,,,,,,,,,
2042,Cavarzere Boscochiaro,45.139961,12.115250,2042,,50,,,,,,,,,,,,
2044,Cavarzere Sant' Antonio,45.140560,12.105241,2044,,50,,,,,,,,,,,,
2045,Monte Grappa Canale,45.140358,12.093067,2045,,50,,,,,,,,,,,,
2046,Cavarzere Ca' Venier,45.145435,12.065998,2046,,50,,,,,,,,,,,,
2047,Caverzere  Ca' Venier,45.145145,12.066152,2047,,50,,,,,,,,,,,,
2048,Cavarzere  Coette Alte,45.153095,12.057835,2048,,50,,,,,,,,,,,,
2049,Cavarzere Coette Alte,45.153336,12.057702,2049,,50,,,,,,,,,,,,
2050,Cavarzere Piovese,45.152664,12.057400,2050,,50,,,,,,,,,,,,
2051,Coette Alte Piovese,45.152569,12.056893,2051,,50,,,,,,,,,,,,
2052,Coette Alte Marcanta,45.151756,12.049273,2052,,50,,,,,,,,,,,,
2053,Marcanta Coette Alte,45.151703,12.049317,2053,,50,,,,,,,,,,,,
2054,Marcanta 34,45.148762,12.035221,2054,,50,,,,,,,,,,,,
2055,Coette Alte Civico 34,45.148827,12.035200,2055,,50,,,,,,,,,,,,
2056,Rottanova Dolomiti,45.142254,12.022885,2056,,50,,,,,,,,,,,,
2057,Rottanova Dolomiti,45.142162,12.022610,2057,,50,,,,,,,,,,,,
2058,Rottanova Maddalena,45.142147,12.013968,2058,,50,,,,,,,,,,,,
2059,Rottanova Coette Basse,45.143951,12.014521,2059,,50,,,,,,,,,,,,
2060,Rottanova Coette Basse,45.144028,12.014438,2060,,50,,,,,,,,,,,,
2061,Rottanova Canale,45.162174,11.999948,2061,,50,,,,,,,,,,,,
2062,Rottanova Canale,45.162216,12.000022,2062,,50,,,,,,,,,,,,
2063,Conetta Rottanova,45.176537,11.996441,2063,,13,,,,,,,,,,,,
2064,Rottanova Conetta,45.176559,11.996598,2064,,13,,,,,,,,,,,,
2065,Tripoli Cona,45.184746,12.018592,2065,,13,,,,,,,,,,,,
2066,Cona,45.184818,12.018525,2066,,13,,,,,,,,,,,,
2067,Pegolotte Piera,45.189297,12.038425,2067,,13,,,,,,,,,,,,
2068,Pegolotte Piera,45.189079,12.038198,2068,,13,,,,,,,,,,,,
2069,Correzzola Cantarana,45.206837,12.094912,2069,,35,,,,,,,,,,,,
2070,Correzzola Cantarana,45.206455,12.094903,2070,,35,,,,,,,,,,,,
2071,Monsole Venezia,45.201527,12.071583,2071,,13,,,,,,,,,,,,
2072,Monsole Venezia,45.201447,12.071616,2072,,13,,,,,,,,,,,,
2073,Treponti Lovo,45.220474,12.113476,2073,,35,,,,,,,,,,,,
2074,Treponti Lovo,45.220005,12.112607,2074,,35,,,,,,,,,,,,
2075,Brenta d'Abba',45.229298,12.118695,2075,,35,,,,,,,,,,,,
2076,Brenta d'Abba',45.229191,12.118515,2076,,35,,,,,,,,,,,,
2077,Santa Margherita,45.242966,12.125057,2077,,55,,,,,,,,,,,,
2078,Santa Margherita,45.243137,12.124905,2078,,55,,,,,,,,,,,,
2079,Villa Del Bosco,45.215679,12.031976,2079,,59,,,,,,,,,,,,
2080,Villa Del Bosco,45.215454,12.032303,2080,,59,,,,,,,,,,,,
2081,Pegolotte,45.193581,12.039625,2081,,13,,,,,,,,,,,,
2082,Pegolotte Piazza De Lotto,45.193649,12.039767,2082,,13,,,,,,,,,,,,
2083,Pontelongo Garibaldi,45.244427,12.024660,2083,,38,,,,,,,,,,,,
2084,Pontelongo Garibaldi,45.243313,12.024137,2084,,38,,,,,,,,,,,,
2085,Pontelongo,45.251205,12.027009,2085,,38,,,,,,,,,,,,
2086,Pontelongo Stazione,45.251057,12.027088,2086,,38,,,,,,,,,,,,
2087,Arzerello,45.275513,12.028613,2087,,37,,,,,,,,,,,,
2088,Arzerello,45.275227,12.028735,2088,,37,,,,,,,,,,,,
2090,Arzarello regionale 516,45.276924,12.030139,2090,,37,,,,,,,,,,,,
2092,Arzergrande,45.274723,12.046801,2092,,37,,,,,,,,,,,,
2094,Arzergrande Roma,45.273930,12.056384,2094,,37,,,,,,,,,,,,
2096,Arzergrande Vallonga,45.270802,12.075128,2096,,37,,,,,,,,,,,,
2098,Codevigo,45.267792,12.102491,2098,,37,,,,,,,,,,,,
2099,Rosara,45.289703,12.098534,2099,,37,,,,,,,,,,,,
2100,Rosara Longo,45.302605,12.091128,2100,,37,,,,,,,,,,,,
2101,Piove di Sacco Fiumazzo,45.312477,12.077419,2101,,37,,,,,,,,,,,,
2102,Corte,45.308754,12.073479,2102,,37,,,,,,,,,,,,
2103,Corte,45.308880,12.073500,2103,,37,,,,,,,,,,,,
2104,Piove di Sacco Ramei,45.303009,12.054394,2104,,37,,,,,,,,,,,,
2105,Piove di Sacco,45.298218,12.034622,2105,,37,,,,,,,,,,,,
2106,Piove di Sacco Scuole,45.303017,12.031845,2106,,37,,,,,,,,,,,,
2107,Piove di Sacco Scuole,45.302608,12.031649,2107,,37,,,,,,,,,,,,
2109,Piove di Sacco Ospedale,45.292122,12.032030,2109,,37,,,,,,,,,,,,
2110,Rusteghello,45.287502,12.030441,2110,,37,,,,,,,,,,,,
2111,Piove di Sacco Rusteghell,45.287418,12.030224,2111,,37,,,,,,,,,,,,
2112,Piove di Sacco Ospedale,45.292152,12.031917,2112,,37,,,,,,,,,,,,
2114,Piove di Sacco,45.298447,12.034760,2114,,37,,,,,,,,,,,,
2115,Rosara Longo,45.302399,12.091283,2115,,37,,,,,,,,,,,,
2116,Piove di Sacco Fiumazzo,45.312424,12.077321,2116,,37,,,,,,,,,,,,
2117,Piove di Sacco Ramei,45.303051,12.054745,2117,,37,,,,,,,,,,,,
2118,Piove di Sacco Rotonda,45.303841,12.038456,2118,,37,,,,,,,,,,,,
2119,Piove di Sacco Rotonda,45.303638,12.038566,2119,,37,,,,,,,,,,,,
2120,Alto Adige Piera,45.315704,12.036867,2120,,8,,,,,,,,,,,,
2121,Alto Adige Piera,45.315453,12.036904,2121,,8,,,,,,,,,,,,
2122,Campolongo Alto Adige,45.315582,12.037902,2122,,8,,,,,,,,,,,,
2123,Campolongo Alto Adige,45.315880,12.038458,2123,,8,,,,,,,,,,,,
2124,Campolongo 8 Marzo,45.323357,12.043879,2124,,8,,,,,,,,,,,,
2125,Campolongo 8 Marzo,45.323601,12.043663,2125,,8,,,,,,,,,,,,
2127,Zara Giarre,45.318935,12.053220,2127,,8,,,,,,,,,,,,
2129,Zara Chiesetta,45.313606,12.060845,2129,,37,,,,,,,,,,,,
2130,Sampieri,45.323040,12.076827,2130,,37,,,,,,,,,,,,
2131,Sampieri,45.322392,12.076707,2131,,37,,,,,,,,,,,,
2132,Bojon,45.337273,12.082607,2132,,8,,,,,,,,,,,,
2133,Bojon,45.337193,12.082411,2133,,8,,,,,,,,,,,,
2134,Bojon Chiesa,45.337948,12.070090,2134,,8,,,,,,,,,,,,
2135,Bojon Chiesa,45.338158,12.069478,2135,,8,,,,,,,,,,,,
2136,Bojon Rivelli,45.338367,12.061916,2136,,8,,,,,,,,,,,,
2137,Bojon Rivelli,45.338074,12.062303,2137,,8,,,,,,,,,,,,
2138,Campolongo,45.331112,12.048369,2138,,8,,,,,,,,,,,,
2139,Campolongo,45.330849,12.048390,2139,,8,,,,,,,,,,,,
2140,Campolongo Pordoi,45.335712,12.040058,2140,,8,,,,,,,,,,,,
2141,Campolongo Pordoi,45.335472,12.040505,2141,,8,,,,,,,,,,,,
2142,Campolongo Piovega,45.325481,12.025946,2142,,8,,,,,,,,,,,,
2143,Campolongo Piovega,45.325256,12.025838,2143,,8,,,,,,,,,,,,
2144,Campolongo Liettoli,45.341434,12.022465,2144,,8,,,,,,,,,,,,
2145,Liettoli Trentino,45.341812,12.022539,2145,,8,,,,,,,,,,,,
2146,Sandon Chiusa,45.353477,12.029350,2146,,8,,,,,,,,,,,,
2147,Sandon Chiusa,45.353336,12.029213,2147,,8,,,,,,,,,,,,
2148,Sandon Toscana,45.357346,12.036109,2148,,8,,,,,,,,,,,,
2149,Sandon Toscana,45.357384,12.035895,2149,,8,,,,,,,,,,,,
2150,Sandon,45.363804,12.041660,2150,,16,,,,,,,,,,,,
2151,Sandon,45.363506,12.041310,2151,,16,,,,,,,,,,,,
2152,Fosso' Callesette,45.381550,12.048518,2152,,16,,,,,,,,,,,,
2153,Foso' Sud Callesette,45.381821,12.048458,2153,,16,,,,,,,,,,,,
2154,Fosso' Provinciale 17,45.385368,12.046852,2154,,16,,,,,,,,,,,,
2155,Fosso',45.386951,12.049380,2155,,16,,,,,,,,,,,,
2156,Fosso' Roncaglia,45.385883,12.043456,2156,,16,,,,,,,,,,,,
2157,Fosso' Roncaglia,45.386051,12.043941,2157,,16,,,,,,,,,,,,
2158,Fosso' Centro,45.385532,12.047726,2158,,16,,,,,,,,,,,,
2159,Fosso',45.386284,12.048852,2159,,16,,,,,,,,,,,,
2160,Fosso' Redipuglia,45.383572,12.035851,2160,,16,,,,,,,,,,,,
2161,Fosso' Redipuglia,45.383591,12.034966,2161,,16,,,,,,,,,,,,
2162,Galta Trieste,45.385078,12.025916,2162,,40,,,,,,,,,,,,
2163,Galta Trieste,45.385181,12.025810,2163,,40,,,,,,,,,,,,
2164,Galta Battisti,45.391521,12.020796,2164,,40,,,,,,,,,,,,
2165,Galta Centro,45.391693,12.022255,2165,,40,,,,,,,,,,,,
2170,Vigonovo De Gasperi,45.385025,12.008216,2170,,40,,,,,,,,,,,,
2171,Vigonovo Moro,45.385132,12.006894,2171,,40,,,,,,,,,,,,
2172,Roma Villamora,45.378101,12.001809,2172,,40,,,,,,,,,,,,
2173,Vigonovo Villamora,45.377522,12.001258,2173,,40,,,,,,,,,,,,
2174,Vigonza Bachelet,45.428932,11.961797,2174,,42,,,,,,,,,,,,
2175,Vigonza Bachelet,45.428978,11.961957,2175,,42,,,,,,,,,,,,
2176,Vigonza Santa Chiara,45.430012,11.966440,2176,,42,,,,,,,,,,,,
2177,Vigonza Santa Chiara,45.429890,11.966275,2177,,42,,,,,,,,,,,,
2178,Bojon Corsivola,45.342270,12.065669,2178,,8,,,,,,,,,,,,
2179,Bojon Corsivola,45.342155,12.065515,2179,,8,,,,,,,,,,,,
2180,Campolongo Zagallo,45.348637,12.070250,2180,,8,,,,,,,,,,,,
2181,Campolongo Zagallo,45.349113,12.070429,2181,,8,,,,,,,,,,,,
2182,Campolongo Sopracornio,45.353092,12.073328,2182,,8,,,,,,,,,,,,
2183,Campolongo Sopracornio,45.353046,12.073225,2183,,8,,,,,,,,,,,,
2184,Cornio,45.356384,12.066370,2184,,16,,,,,,,,,,,,
2185,Cornio,45.356457,12.066504,2185,,16,,,,,,,,,,,,
2186,Bojon FS,45.336704,12.081164,2186,,8,,,,,,,,,,,,
2187,Bojon FS,45.336815,12.081066,2187,,8,,,,,,,,,,,,
2188,Campagna Lupia Lazzaretto,45.345596,12.087465,2188,,8,,,,,,,,,,,,
2189,Campagna Lupia Lazzaretto,45.346340,12.087763,2189,,8,,,,,,,,,,,,
2190,Campagna Lupia,45.357170,12.092006,2190,,8,,,,,,,,,,,,
2191,Campagna Lupia,45.357296,12.091882,2191,,8,,,,,,,,,,,,
2192,Premaore,45.362602,12.068647,2192,,16,,,,,,,,,,,,
2193,Premaore,45.362514,12.068599,2193,,16,,,,,,,,,,,,
2194,Camponogara Alighieri,45.368000,12.066417,2194,,16,,,,,,,,,,,,
2195,Camponogara Alighieri,45.368080,12.066455,2195,,16,,,,,,,,,,,,
2196,Prozzolo,45.368202,12.094205,2196,,16,,,,,,,,,,,,
2197,Prozzolo,45.366844,12.093818,2197,,16,,,,,,,,,,,,
2198,Prozzolo Chiesa,45.370995,12.086604,2198,,16,,,,,,,,,,,,
2199,Prozzolo Chiesa,45.370667,12.086972,2199,,16,,,,,,,,,,,,
2200,Camponogara Pascoli,45.373833,12.068716,2200,,16,,,,,,,,,,,,
2201,Camponogara Pascoli,45.373718,12.068553,2201,,16,,,,,,,,,,,,
2202,Camponogara Matteotti,45.381889,12.079076,2202,,16,,,,,,,,,,,,
2203,Camponogara Matteotti,45.382019,12.079032,2203,,16,,,,,,,,,,,,
2204,Camponogara IV Novembre,45.382515,12.078841,2204,,16,,,,,,,,,,,,
2205,Camponogara IV Novembre,45.382542,12.077732,2205,,16,,,,,,,,,,,,
2206,Camponogara Matteotti,45.383301,12.073605,2206,,16,,,,,,,,,,,,
2207,Camponogara Matteotti,45.383255,12.073330,2207,,16,,,,,,,,,,,,
2208,Camponogara Arzerini,45.387154,12.071737,2208,,16,,,,,,,,,,,,
2209,Camponogara Arzerini,45.387058,12.071678,2209,,16,,,,,,,,,,,,
2210,Camponogara Premaore,45.382313,12.066328,2210,,16,,,,,,,,,,,,
2211,Camponogara Premaore,45.382484,12.066988,2211,,16,,,,,,,,,,,,
2212,Fosso' Verdi,45.383263,12.056836,2212,,16,,,,,,,,,,,,
2213,Fosso' Verdi,45.383362,12.056836,2213,,16,,,,,,,,,,,,
2214,Camponogara Diedo,45.377697,12.096108,2214,,16,,,,,,,,,,,,
2215,Camponogara Diedo,45.377361,12.095889,2215,,16,,,,,,,,,,,,
2216,Calcroci Cavour,45.384430,12.097520,2216,,16,,,,,,,,,,,,
2217,Calcroci Cavour,45.383987,12.097267,2217,,16,,,,,,,,,,,,
2218,Calcroci Chiesa,45.385212,12.099083,2218,,16,,,,,,,,,,,,
2219,Calcroci Volta,45.385651,12.099767,2219,,16,,,,,,,,,,,,
2220,Camponogara Volta,45.386246,12.115607,2220,,16,,,,,,,,,,,,
2221,Camponogara Volta,45.386326,12.115969,2221,,16,,,,,,,,,,,,
2222,Lughetto Marzabotto,45.387798,12.125281,2222,,8,,,,,,,,,,,,
2223,Lughetto Marzabotto,45.387756,12.125896,2223,,8,,,,,,,,,,,,
2224,Marghera Romea,45.390091,12.138957,2224,,8,,,,,,,,,,,,
2225,Marghera Romea,45.390022,12.139095,2225,,8,,,,,,,,,,,,
2226,Camponogara Casino Rosso,45.396221,12.099929,2226,,16,,,,,,,,,,,,
2227,Camponogara Casino Rosso,45.396500,12.099885,2227,,16,,,,,,,,,,,,
2228,Dolo Marinelle,45.401253,12.100975,2228,,14,,,,,,,,,,,,
2229,Sambruson Marinelle,45.401459,12.100911,2229,,14,,,,,,,,,,,,
2230,Sambruson,45.413620,12.098724,2230,,14,,,,,,,,,,,,
2231,Sambruson,45.413715,12.098679,2231,,14,,,,,,,,,,,,
2232,Sanbruson Marco Polo,45.413387,12.101648,2232,,14,,,,,,,,,,,,
2233,Sanbruson Marco Polo,45.413357,12.102551,2233,,14,,,,,,,,,,,,
2234,Dolo Carrezzioi,45.413639,12.106759,2234,,14,,,,,,,,,,,,
2235,Sanbruson Carrezzioi,45.413757,12.107097,2235,,14,,,,,,,,,,,,
2236,Sanbruson Ferrovia,45.415409,12.119274,2236,,14,,,,,,,,,,,,
2237,Dolo Ferrovia,45.415527,12.120353,2237,,14,,,,,,,,,,,,
2238,Mira Montessori,45.417900,12.132327,2238,,51,,,,,,,,,,,,
2239,Mira Montessori,45.417805,12.132431,2239,,51,,,,,,,,,,,,
2240,Mira Campi,45.419090,12.140878,2240,,51,,,,,,,,,,,,
2241,Mira Campi,45.419327,12.140631,2241,,51,,,,,,,,,,,,
2242,Mira Piazza Vecchia,45.417290,12.148016,2242,,51,,,,,,,,,,,,
2243,Mira Piazza Vecchia,45.417328,12.147649,2243,,51,,,,,,,,,,,,
2244,Mira Bellini,45.421120,12.152237,2244,,51,,,,,,,,,,,,
2245,Gambarare Bellini,45.420456,12.151747,2245,,51,,,,,,,,,,,,
2246,Gambarare,45.424850,12.152201,2246,,51,,,,,,,,,,,,
2247,Chiesa Gambarare,45.424747,12.152025,2247,,51,,,,,,,,,,,,
2248,Mira Matteotti,45.434376,12.139396,2248,,51,,,,,,,,,,,,
2250,Mira Municipio,45.433228,12.124085,2250,,51,,,,,,,,,,,,
2251,Mira centro,45.433559,12.122227,2251,,51,,,,,,,,,,,,
2252,Mira Alfieri,45.434692,12.121031,2252,,51,,,,,,,,,,,,
2253,Mira Alighieri,45.436523,12.131197,2253,,51,,,,,,,,,,,,
2254,Mira Alighieri,45.436234,12.130562,2254,,51,,,,,,,,,,,,
2256,Mira Porte,45.440304,12.141537,2256,,51,,,,,,,,,,,,
2257,Mira Porte,45.440289,12.140756,2257,,51,,,,,,,,,,,,
2258,Mira Riscossa,45.441875,12.146410,2258,,51,,,,,,,,,,,,
2260,Mira Albrizzi,45.432354,12.114141,2260,,51,,,,,,,,,,,,
2261,Dolo Civico 75,45.427227,12.104314,2261,,14,,,,,,,,,,,,
2263,Dolo Manzoni,45.425529,12.080990,2263,,14,,,,,,,,,,,,
2264,Dolo Manzoni,45.425598,12.081419,2264,,14,,,,,,,,,,,,
2265,Dolo Monache,45.419209,12.085596,2265,,14,,,,,,,,,,,,
2266,Dolo Monache,45.419327,12.085476,2266,,14,,,,,,,,,,,,
2267,Dolo Doria,45.421658,12.079326,2267,,14,,,,,,,,,,,,
2268,Dolo Doria,45.421799,12.079182,2268,,14,,,,,,,,,,,,
2269,Dolo Guardiana,45.421375,12.078323,2269,,14,,,,,,,,,,,,
2270,Dolo Guardiana,45.420376,12.079394,2270,,14,,,,,,,,,,,,
2271,Dolo Alture,45.400578,12.082491,2271,,14,,,,,,,,,,,,
2272,Dolo Alture,45.400539,12.082394,2272,,14,,,,,,,,,,,,
2273,Camponogara Artigiani,45.389721,12.073530,2273,,16,,,,,,,,,,,,
2274,Camponogara Artigiani,45.388973,12.072514,2274,,16,,,,,,,,,,,,
2275,Campoverardo,45.393177,12.061841,2275,,16,,,,,,,,,,,,
2276,Campoverardo,45.393608,12.062298,2276,,16,,,,,,,,,,,,
2277,Campoverardo Centro,45.394363,12.062046,2277,,16,,,,,,,,,,,,
2278,Campoverardo Centro,45.394413,12.061790,2278,,16,,,,,,,,,,,,
2279,Campoverardo Civico 57,45.391129,12.058443,2279,,16,,,,,,,,,,,,
2280,Campoverardo civico 57,45.390980,12.058007,2280,,16,,,,,,,,,,,,
2281,Fosso' Favalli,45.394745,12.050802,2281,,16,,,,,,,,,,,,
2282,Fosso' Favalli,45.394524,12.050599,2282,,16,,,,,,,,,,,,
2283,Paluello Veneto,45.408691,12.051798,2283,,28,,,,,,,,,,,,
2284,Paluello Veneto,45.408524,12.051497,2284,,28,,,,,,,,,,,,
2285,Paluello,45.411095,12.053428,2285,,28,,,,,,,,,,,,
2286,Paluello,45.411026,12.053236,2286,,28,,,,,,,,,,,,
2287,Fiesso Padana,45.417377,12.052494,2287,,28,,,,,,,,,,,,
2288,Fiesso d'Artico Padana,45.417717,12.052324,2288,,28,,,,,,,,,,,,
2289,Fiesso Gemito,45.419041,12.060034,2289,,28,,,,,,,,,,,,
2290,Fiesso Gemito,45.419235,12.060348,2290,,28,,,,,,,,,,,,
2291,Dolo Centro,45.423618,12.074769,2291,,14,,,,,,,,,,,,
2292,Dolo Centro,45.423794,12.074724,2292,,14,,,,,,,,,,,,
2293,Fiesso D'Artico Bandiera,45.417522,12.043262,2293,,28,,,,,,,,,,,,
2294,Fiesso D'Artico Bandiera,45.417660,12.043710,2294,,28,,,,,,,,,,,,
2295,Fiesso D'Artico Centro,45.416721,12.031892,2295,,28,,,,,,,,,,,,
2296,Fiesso D'Artico Centro,45.416901,12.031479,2296,,28,,,,,,,,,,,,
2297,Fiesso D'Artico Pioghella,45.415783,12.023360,2297,,28,,,,,,,,,,,,
2298,Fiesso Pioghella,45.415340,12.022698,2298,,28,,,,,,,,,,,,
2299,Stra' Bassa,45.405941,12.039464,2299,,28,,,,,,,,,,,,
2300,Stra' Bassa,45.406456,12.038340,2300,,28,,,,,,,,,,,,
2301,San Pietro Minzoni,45.407253,12.029864,2301,,28,,,,,,,,,,,,
2302,San Pietro Minzoni,45.407150,12.029813,2302,,28,,,,,,,,,,,,
2303,San Pietro Isonzo,45.404976,12.021269,2303,,28,,,,,,,,,,,,
2304,San Pietro Isonzo,45.405083,12.021924,2304,,28,,,,,,,,,,,,
2305,Stra' San Pietro,45.405563,12.015529,2305,,28,,,,,,,,,,,,
2306,Stra' San Pietro,45.405899,12.015220,2306,,28,,,,,,,,,,,,
2307,Stra Crispino,45.407227,12.013088,2307,,28,,,,,,,,,,,,
2308,Stra Loredan,45.407288,12.009026,2308,,28,,,,,,,,,,,,
2309,Stra Piazza Marconi,45.409847,12.005227,2309,,28,,,,,,,,,,,,
2310,Stra Piazza Marconi,45.409725,12.005057,2310,,28,,,,,,,,,,,,
2311,Stra Dante,45.413841,12.001265,2311,,28,,,,,,,,,,,,
2312,Stra Dante,45.413811,12.000913,2312,,28,,,,,,,,,,,,
2313,Capriccio Centro,45.416306,11.993863,2313,,42,,,,,,,,,,,,
2314,Capriccio Centro,45.416656,11.992594,2314,,42,,,,,,,,,,,,
2315,Perarolo Quartiere Pavan,45.421764,11.979516,2315,,42,,,,,,,,,,,,
2316,Perarolo Quartiere Pavan,45.421978,11.978627,2316,,42,,,,,,,,,,,,
2317,Vigonza Perarolo,45.426521,11.963081,2317,,42,,,,,,,,,,,,
2318,Vigonza Perarolo,45.426319,11.963276,2318,,42,,,,,,,,,,,,
2319,Busa di Vigonza Centro,45.428249,11.953436,2319,,42,,,,,,,,,,,,
2320,Busa di Vigonza Centro,45.427952,11.952479,2320,,42,,,,,,,,,,,,
2321,Ponte di Brenta Centro,45.425373,11.947203,2321,,36,,,,,,,,,,,,
2322,Ponte di Brenta Centro,45.425072,11.945745,2322,,36,,,,,,,,,,,,
2323,Ponte di Brenta Lago,45.423592,11.942361,2323,,36,,,,,,,,,,,,
2324,Ponte di Brenta Lago,45.423649,11.942787,2324,,36,,,,,,,,,,,,
2325,Padova Est,45.420067,11.933189,2325,,36,,,,,,,,,,,,
2326,Padova Est,45.420101,11.934348,2326,,36,,,,,,,,,,,,
2327,Padova San Lazzaro,45.417412,11.924617,2327,,36,,,,,,,,,,,,
2328,Padova San Lazzaro,45.417744,11.925914,2328,,36,,,,,,,,,,,,
2333,Padova Turazza,45.409325,11.900509,2333,,36,,,,,,,,,,,,
2335,Cazzago Pascoli,45.434124,12.074840,2335,,22,,,,,,,,,,,,
2336,Cazzago Pascoli,45.434742,12.074998,2336,,22,,,,,,,,,,,,
2337,Dolo Municipio,45.426453,12.074621,2337,,14,,,,,,,,,,,,
2338,Dolo Municipio,45.426113,12.074528,2338,,14,,,,,,,,,,,,
2339,Cazzago,45.438831,12.074498,2339,,22,,,,,,,,,,,,
2340,Cazzago,45.439018,12.074231,2340,,22,,,,,,,,,,,,
2341,Martellago Centro Anziani,45.544136,12.157394,2341,,18,,,,,,,,,,,,
2342,Cazzago,45.439674,12.073378,2342,,22,,,,,,,,,,,,
2343,Scorze' Ortigara,45.569592,12.114377,2343,,26,,,,,,,,,,,,
2344,Scorze' Ortigara,45.569683,12.114690,2344,,26,,,,,,,,,,,,
2345,Cazzaghetto Industriale,45.439922,12.063392,2345,,14,,,,,,,,,,,,
2346,Cazzaghetto Industriale,45.440006,12.063047,2346,,14,,,,,,,,,,,,
2347,Cazzaghetto Parolini,45.440086,12.055493,2347,,14,,,,,,,,,,,,
2348,Cazzaghetto Parolini,45.439960,12.055266,2348,,14,,,,,,,,,,,,
2349,Cazzaghetto Arino,45.438774,12.048970,2349,,14,,,,,,,,,,,,
2350,Cazzaghetto Arino,45.438797,12.048565,2350,,14,,,,,,,,,,,,
2351,Pianiga Accoppe',45.453087,12.046860,2351,,22,,,,,,,,,,,,
2352,Pianiga Accoppe',45.452961,12.047072,2352,,22,,,,,,,,,,,,
2353,Pianiga Bosco,45.454838,12.037015,2353,,22,,,,,,,,,,,,
2354,Pianiga Bosco,45.454994,12.036608,2354,,22,,,,,,,,,,,,
2355,Pianiga,45.456192,12.030093,2355,,22,,,,,,,,,,,,
2356,Pianiga Roma,45.456196,12.029609,2356,,22,,,,,,,,,,,,
2357,Pianiga Roma,45.456947,12.021338,2357,,22,,,,,,,,,,,,
2358,Pianiga Roma,45.456959,12.021491,2358,,22,,,,,,,,,,,,
2359,Rivale Bosco,45.456116,12.012262,2359,,22,,,,,,,,,,,,
2360,Pianiga Bosco,45.456215,12.012007,2360,,22,,,,,,,,,,,,
2361,Rivale Chiesa,45.457367,12.005746,2361,,22,,,,,,,,,,,,
2362,Rivale Chiesa,45.457233,12.006129,2362,,22,,,,,,,,,,,,
2363,Mellaredo Cavinello,45.459606,11.992663,2363,,22,,,,,,,,,,,,
2364,Mirano Volpino,45.461895,12.052319,2364,,54,,,,,,,,,,,,
2365,Mirano Volpino,45.461975,12.052123,2365,,54,,,,,,,,,,,,
2366,Mira Di Vittorio,45.435616,12.146809,2366,,51,,,,,,,,,,,,
2367,Mira Bernini,45.434772,12.141922,2367,,51,,,,,,,,,,,,
2368,Mira Alberti,45.432796,12.140710,2368,,51,,,,,,,,,,,,
2370,Ballo' Stazione,45.459126,12.071945,2370,,54,,,,,,,,,,,,
2371,Ballo' Stazione,45.459038,12.072940,2371,,54,,,,,,,,,,,,
2372,Ballo' Cimitero,45.459881,12.077083,2372,,54,,,,,,,,,,,,
2373,Ballo' Cimitero,45.460140,12.077267,2373,,54,,,,,,,,,,,,
2374,Ballo' Mazzini,45.456413,12.072708,2374,,54,,,,,,,,,,,,
2375,Ballo' Mazzini,45.456829,12.072654,2375,,54,,,,,,,,,,,,
2376,Ballo' FS,45.452221,12.072706,2376,,54,,,,,,,,,,,,
2377,Ballo' FS,45.451813,12.072615,2377,,54,,,,,,,,,,,,
2378,Cazzago Trasimeno,45.443111,12.075050,2378,,22,,,,,,,,,,,,
2379,Cazzago Trasimeno,45.442596,12.074694,2379,,22,,,,,,,,,,,,
2380,Mira Ginestre,45.450367,12.119636,2380,,51,,,,,,,,,,,,
2381,Mira Ginestre,45.450634,12.119467,2381,,51,,,,,,,,,,,,
2382,Mira Argine,45.457291,12.119019,2382,,51,,,,,,,,,,,,
2383,Mira Argine,45.457146,12.118941,2383,,51,,,,,,,,,,,,
2384,SFMR Spinea,45.490746,12.176368,2384,,27,,,,,,,,,,,,
2386,Marano,45.465229,12.116608,2386,,51,,,,,,,,,,,,
2387,Marano,45.465397,12.116034,2387,,51,,,,,,,,,,,,
2388,Marano Caltana,45.465561,12.118305,2388,,51,,,,,,,,,,,,
2389,Marano Caltana,45.465366,12.118230,2389,,51,,,,,,,,,,,,
2390,Mirano Trescievoli,45.469437,12.117905,2390,,20,,,,,,,,,,,,
2391,MIrano Trescievoli,45.469624,12.118024,2391,,20,,,,,,,,,,,,
2392,Mirano Olmo,45.481380,12.116914,2392,,20,,,,,,,,,,,,
2393,MIrano Olmo,45.481125,12.116839,2393,,20,,,,,,,,,,,,
2394,MiranoTaglio Sinistro,45.477921,12.117217,2394,,20,,,,,,,,,,,,
2395,MiranoTaglio Sinistro,45.477699,12.117149,2395,,20,,,,,,,,,,,,
2396,Mirano Matteotti,45.494091,12.092960,2396,,53,,,,,,,,,,,,
2397,Mira Nazionale,45.435921,12.128771,2397,,51,,,,,,,,,,,,
2398,Mira Nazionale,45.435585,12.128607,2398,,51,,,,,,,,,,,,
2399,Porara Gidoni,45.475216,12.108757,2399,,20,,,,,,,,,,,,
2400,Porara Gidoni,45.474998,12.108586,2400,,20,,,,,,,,,,,,
2401,Vigonza Sant' Andrea,45.431053,11.969845,2401,,42,,,,,,,,,,,,
2402,Vigonza Sant'Andrea,45.430763,11.970461,2402,,42,,,,,,,,,,,,
2403,Vetrego,45.468128,12.107089,2403,,54,,,,,,,,,,,,
2404,Scaltenigo Porara,45.467953,12.107474,2404,,54,,,,,,,,,,,,
2405,Scaltenigo Formigo,45.469765,12.093193,2405,,54,,,,,,,,,,,,
2406,Corte Piazza Monumento,45.309662,12.073686,2406,,37,,,,,,,,,,,,
2407,Scaltenigo Formigo,45.469757,12.093974,2407,,54,,,,,,,,,,,,
2408,Scaltenigo,45.470043,12.083279,2408,,54,,,,,,,,,,,,
2409,Scaltenigo,45.470116,12.083413,2409,,54,,,,,,,,,,,,
2410,Scaltenigo Caltana,45.469315,12.082181,2410,,54,,,,,,,,,,,,
2411,Scaltenigo Caltana,45.469303,12.082101,2411,,54,,,,,,,,,,,,
2412,Case Pugliero,45.472691,12.064860,2412,,54,,,,,,,,,,,,
2413,Case Pugliero,45.472549,12.065579,2413,,54,,,,,,,,,,,,
2414,Mirano Fratte,45.474270,12.056846,2414,,54,,,,,,,,,,,,
2415,Mirano Fratte,45.474236,12.056752,2415,,54,,,,,,,,,,,,
2416,Caltana via Chiesa,45.475948,12.047690,2416,,54,,,,,,,,,,,,
2417,Caltana via Chiesa,45.475849,12.047953,2417,,54,,,,,,,,,,,,
2420,Caltana Marinoni,45.477234,12.029926,2420,,25,,,,,,,,,,,,
2421,Salzano Lorenzetti,45.532261,12.110600,2421,,24,,,,,,,,,,,,
2422,Salzano Lorenzetti,45.531639,12.110355,2422,,24,,,,,,,,,,,,
2423,Oriago Sommo,45.446522,12.159869,2423,,51,,,,,,,,,,,,
2424,Oriago Sommo,45.446136,12.159428,2424,,51,,,,,,,,,,,,
2425,Mira Riscossa,45.441925,12.146839,2425,,51,,,,,,,,,,,,
2426,Oriago Stazione,45.449028,12.165975,2426,,51,,,,,,,,,,,,
2427,Oriago Romagna,45.453587,12.176993,2427,,57,,,,,,,,,,,,
2428,Oriago Centro,45.451176,12.170327,2428,,19,,,,,,,,,,,,
2429,Oriago Marche,45.456112,12.171527,2429,,19,,,,,,,,,,,,
2431,Borbiago Friuli,45.459179,12.165154,2431,,19,,,,,,,,,,,,
2432,Borbiago Friuli,45.459263,12.164813,2432,,19,,,,,,,,,,,,
2433,Borbiago Sardegna,45.457424,12.159644,2433,,51,,,,,,,,,,,,
2434,Borbiago Sardegna,45.457558,12.160230,2434,,51,,,,,,,,,,,,
2435,Borbiago Milano,45.456024,12.156505,2435,,51,,,,,,,,,,,,
2436,Borbiago Milano,45.455814,12.156200,2436,,51,,,,,,,,,,,,
2437,Borbiago Centro,45.454521,12.151527,2437,,51,,,,,,,,,,,,
2438,Borbiago,45.454647,12.152730,2438,,51,,,,,,,,,,,,
2439,Borbiago Boldani,45.453197,12.144689,2439,,51,,,,,,,,,,,,
2440,Borbiago Boldani,45.453285,12.144662,2440,,51,,,,,,,,,,,,
2441,Mira San Monte,45.456139,12.132581,2441,,51,,,,,,,,,,,,
2442,Mira San Monte,45.456417,12.132211,2442,,51,,,,,,,,,,,,
2443,Caltana Sottopasso,45.462860,12.122395,2443,,51,,,,,,,,,,,,
2444,Marano Sottopasso,45.462894,12.121987,2444,,51,,,,,,,,,,,,
2445,Romea Giare,45.401104,12.147723,2445,,52,,,,,,,,,,,,
2446,Romea Giare,45.400677,12.147012,2446,,52,,,,,,,,,,,,
2447,Romea Bastie,45.419540,12.169064,2447,,52,,,,,,,,,,,,
2448,Gambarare Bastie,45.420918,12.170952,2448,,52,,,,,,,,,,,,
2449,Romea Ca' Balletto,45.430428,12.185611,2449,,52,,,,,,,,,,,,
2450,Gambarare Ca' Balletto,45.430035,12.184815,2450,,52,,,,,,,,,,,,
2451,Romea Malcanton,45.435581,12.193286,2451,,52,,,,,,,,,,,,
2452,Romea Malcanton,45.435417,12.192745,2452,,52,,,,,,,,,,,,
2453,San Pietro Chiesa,45.115803,12.185735,2453,,11,,,,,,,,,,,,
2454,San Pietro Civico 21,45.121784,12.168634,2454,,11,,,,,,,,,,,,
2455,San Pietro Pizzon,45.122627,12.161945,2455,,11,,,,,,,,,,,,
2456,San Pietro Gasdotto,45.124439,12.151813,2456,,11,,,,,,,,,,,,
2457,Argine Sinistro Civico 21,45.121727,12.168724,2457,,11,,,,,,,,,,,,
2458,Argine Sinistro Pizzon,45.122562,12.162034,2458,,11,,,,,,,,,,,,
2459,Argine Sinistro Gasdotto,45.124393,12.151775,2459,,11,,,,,,,,,,,,
2460,Cavarzere Boscochiaro,45.140133,12.114282,2460,,50,,,,,,,,,,,,
2461,Boscochiaro,45.137402,12.116664,2461,,50,,,,,,,,,,,,
2462,Cavarzere Sant' Antonio,45.140511,12.105187,2462,,50,,,,,,,,,,,,
2463,Cavarzere Grappa Canale,45.140335,12.093184,2463,,50,,,,,,,,,,,,
2468,Cavarzere Pontenovo,45.142380,12.071565,2468,,50,,,,,,,,,,,,
2469,Cavarzere Trieste,45.142612,12.085443,2469,,50,,,,,,,,,,,,
2470,Villaggio Busonera,45.142963,12.095675,2470,,50,,,,,,,,,,,,
2471,Stra Crispino,45.407238,12.012857,2471,,28,,,,,,,,,,,,
2472,Stra Loredan,45.407478,12.008665,2472,,28,,,,,,,,,,,,
2473,Santa Maria di Sala Grand,45.483879,12.004588,2473,,25,,,,,,,,,,,,
2474,Santa Maria di Sala Grand,45.483688,12.005192,2474,,25,,,,,,,,,,,,
2475,Caltana Pioga,45.480995,12.020096,2475,,25,,,,,,,,,,,,
2476,Caltana Pioga,45.480873,12.021104,2476,,25,,,,,,,,,,,,
2477,Caselle Madonna Mora,45.485435,12.004076,2477,,25,,,,,,,,,,,,
2478,Caselle Madonna Mora,45.484646,12.003623,2478,,25,,,,,,,,,,,,
2479,Santa Maria di Sala Casel,45.489532,12.005639,2479,,25,,,,,,,,,,,,
2480,Santa Maria di Sala Casel,45.488876,12.005230,2480,,25,,,,,,,,,,,,
2481,Santa Maria di SalaTabina,45.499454,12.009269,2481,,25,,,,,,,,,,,,
2482,Santa Maria di Sala Tabin,45.500084,12.009371,2482,,25,,,,,,,,,,,,
2483,Santa Maria di Sala Spall,45.507671,12.018333,2483,,25,,,,,,,,,,,,
2484,Santa Maria di Sala Spall,45.507915,12.017610,2484,,25,,,,,,,,,,,,
2485,Santa Maria di Sala,45.504559,12.035152,2485,,25,,,,,,,,,,,,
2486,Santa Maria di Sala,45.504486,12.036058,2486,,25,,,,,,,,,,,,
2487,Mirano localita' Botti,45.500500,12.056901,2487,,53,,,,,,,,,,,,
2488,Mirano Localita' Botti,45.500801,12.055809,2488,,53,,,,,,,,,,,,
2489,Mirano Bollati,45.499187,12.064680,2489,,53,,,,,,,,,,,,
2490,Mirano Bollati,45.499184,12.064129,2490,,53,,,,,,,,,,,,
2491,Mirano Varotara,45.497295,12.074208,2491,,53,,,,,,,,,,,,
2492,Mirano Varotara,45.497456,12.073871,2492,,53,,,,,,,,,,,,
2493,Mirano Caravaggio,45.494793,12.088675,2493,,53,,,,,,,,,,,,
2494,Mirano Caravaggio,45.494434,12.089574,2494,,53,,,,,,,,,,,,
2495,Mirano Modigliani,45.495647,12.083523,2495,,53,,,,,,,,,,,,
2496,Mirano Modigliani,45.495514,12.083928,2496,,53,,,,,,,,,,,,
2497,Santa Maria di Sala Luxor,45.505898,12.028385,2497,,25,,,,,,,,,,,,
2498,Santa Maria di Sala Luxor,45.505798,12.028517,2498,,25,,,,,,,,,,,,
2499,MIrano Grimani,45.492275,12.102288,2499,,53,,,,,,,,,,,,
2500,Mirano Grimani,45.492138,12.102948,2500,,53,,,,,,,,,,,,
2501,Mirano Perugino,45.493114,12.096655,2501,,53,,,,,,,,,,,,
2502,Mirano Battisti,45.494583,12.101851,2502,,53,,,,,,,,,,,,
2503,Mirano Battisti,45.493629,12.101782,2503,,53,,,,,,,,,,,,
2504,MIrano Gramsci,45.491772,12.106275,2504,,20,,,,,,,,,,,,
2505,MIrano Gramsci,45.492020,12.105131,2505,,20,,,,,,,,,,,,
2506,Mirano Pestrino,45.490723,12.114103,2506,,20,,,,,,,,,,,,
2507,Mirano Pestrino,45.490910,12.112920,2507,,20,,,,,,,,,,,,
2508,MIrano Centro,45.491325,12.110166,2508,,20,,,,,,,,,,,,
2509,Mirano Centro,45.491493,12.109680,2509,,20,,,,,,,,,,,,
2510,MIrano Dante,45.492939,12.115886,2510,,20,,,,,,,,,,,,
2511,Mirano Dante,45.493244,12.115980,2511,,20,,,,,,,,,,,,
2512,Mirano Caboto,45.492134,12.120171,2512,,20,,,,,,,,,,,,
2513,Mirano Caboto,45.492115,12.119734,2513,,20,,,,,,,,,,,,
2514,Ospedale Mirano,45.497894,12.114887,2514,,20,,,,,,,,,,,,
2515,Ospedale Mirano,45.497787,12.115300,2515,,20,,,,,,,,,,,,
2516,MIrano Treviso,45.498352,12.118600,2516,,20,,,,,,,,,,,,
2518,Mirano Carducci,45.497684,12.124294,2518,,20,,,,,,,,,,,,
2519,Mirano Carducci,45.497421,12.124770,2519,,20,,,,,,,,,,,,
2520,Mirano Mariutto,45.496475,12.111017,2520,,20,,,,,,,,,,,,
2522,Mirano  Minzoni,45.498669,12.098955,2522,,53,,,,,,,,,,,,
2523,Mirano  Minzoni,45.498779,12.098864,2523,,53,,,,,,,,,,,,
2524,Mirano  Civico 16,45.499626,12.096178,2524,,53,,,,,,,,,,,,
2525,Mirano  Civico 16,45.500175,12.094860,2525,,53,,,,,,,,,,,,
2526,Mirano Civico 97,45.501328,12.088236,2526,,53,,,,,,,,,,,,
2527,Mirano Civico 97,45.501534,12.087466,2527,,53,,,,,,,,,,,,
2528,Mirano Contarini,45.503666,12.084844,2528,,53,,,,,,,,,,,,
2529,Mirano Contarini,45.503979,12.083339,2529,,53,,,,,,,,,,,,
2530,Zianigo,45.504787,12.077634,2530,,53,,,,,,,,,,,,
2531,Zianigo,45.504871,12.077714,2531,,53,,,,,,,,,,,,
2532,Zianigo Desman,45.509125,12.078451,2532,,53,,,,,,,,,,,,
2533,Zianigo Desman,45.509136,12.078364,2533,,53,,,,,,,,,,,,
2534,Mirano localita' Fontana,45.511440,12.070299,2534,,53,,,,,,,,,,,,
2535,Mirano localita' Fontana,45.511501,12.070317,2535,,53,,,,,,,,,,,,
2536,Sant Angelo Noalese,45.517807,12.035609,2536,,25,,,,,,,,,,,,
2537,Sant Angelo Noalese,45.517899,12.035574,2537,,25,,,,,,,,,,,,
2538,Veternigo Pianiga,45.515549,12.048156,2538,,25,,,,,,,,,,,,
2539,Veternigo Pianiga,45.515568,12.048390,2539,,25,,,,,,,,,,,,
2540,Veternigo,45.513912,12.057444,2540,,25,,,,,,,,,,,,
2541,Veternigo,45.513882,12.057000,2541,,25,,,,,,,,,,,,
2542,Sant'Angelo Centro,45.521454,12.016619,2542,,25,,,,,,,,,,,,
2543,Sant'Angelo Centro,45.520756,12.019495,2543,,25,,,,,,,,,,,,
2544,Borgoricco,45.530792,11.966075,2544,,33,,,,,,,,,,,,
2545,Borgoricco,45.530762,11.965753,2545,,33,,,,,,,,,,,,
2546,Borgoricco Mussolini,45.528088,11.980701,2546,,33,,,,,,,,,,,,
2547,Borgorrico Sant Eufemia,45.526291,11.990376,2547,,33,,,,,,,,,,,,
2548,Sant Angelo Sole,45.523773,12.003577,2548,,33,,,,,,,,,,,,
2549,Sant Angelo Sole,45.523582,12.004165,2549,,33,,,,,,,,,,,,
2550,Mira Scuole,45.438148,12.127742,2550,,51,,,,,,,,,,,,
2551,Dolo Presicci,45.416218,12.081860,2551,,14,,,,,,,,,,,,
2552,Dolo Presicci,45.416409,12.081870,2552,,14,,,,,,,,,,,,
2553,Camponogara Industria,45.394928,12.079245,2553,,16,,,,,,,,,,,,
2554,Camponogara Industria,45.395588,12.079914,2554,,16,,,,,,,,,,,,
2555,Fosso' Arzaroni,45.384148,12.039423,2555,,16,,,,,,,,,,,,
2556,Fosso' Arzaroni,45.384193,12.039351,2556,,16,,,,,,,,,,,,
2557,Ghebba Rubaldi,45.462318,12.175601,2557,,19,,,,,,,,,,,,
2558,Ghebba Lusore,45.460388,12.175241,2558,,19,,,,,,,,,,,,
2559,Ghebba Malpaga,45.457600,12.173930,2559,,19,,,,,,,,,,,,
2560,Borgorrico Sant Eufemia,45.525772,11.992584,2560,,33,,,,,,,,,,,,
2561,Borgoricco Mussolini,45.527958,11.980870,2561,,33,,,,,,,,,,,,
2562,Mirano Fossa,45.495228,12.135365,2562,,20,,,,,,,,,,,,
2563,Mirano Fossa,45.495335,12.134914,2563,,20,,,,,,,,,,,,
2564,Spinea Repubblica,45.496140,12.145558,2564,,27,,,,,,,,,,,,
2565,Spinea Repubblica,45.496281,12.143914,2565,,27,,,,,,,,,,,,
2566,Spinea Zigaraga,45.508282,12.148455,2566,,27,,,,,,,,,,,,
2567,Spinea Zigaraga,45.506779,12.147233,2567,,27,,,,,,,,,,,,
2568,Spinea Luneo,45.501648,12.144403,2568,,27,,,,,,,,,,,,
2569,Spinea Luneo,45.500153,12.143000,2569,,27,,,,,,,,,,,,
2570,Maerne Centro,45.523186,12.155512,2570,,18,,,,,,,,,,,,
2571,Maerne Centro,45.523502,12.155410,2571,,18,,,,,,,,,,,,
2578,Mirano Boschette,45.504509,12.109967,2578,,20,,,,,,,,,,,,
2579,Mirano  Boschette,45.503777,12.109221,2579,,20,,,,,,,,,,,,
2580,MIrano Luneo,45.511566,12.113083,2580,,20,,,,,,,,,,,,
2581,Mirano Luneo,45.511223,12.112897,2581,,20,,,,,,,,,,,,
2582,Salzano Matteotti,45.516590,12.112220,2582,,24,,,,,,,,,,,,
2583,Salzano Matteotti,45.516140,12.112115,2583,,24,,,,,,,,,,,,
2584,Salzano De Gasperi,45.521267,12.107759,2584,,24,,,,,,,,,,,,
2585,Salzano De Gasperi,45.521332,12.107990,2585,,24,,,,,,,,,,,,
2586,Salzano Chiesa,45.521290,12.103760,2586,,24,,,,,,,,,,,,
2587,Salzano Chiesa,45.521370,12.104250,2587,,24,,,,,,,,,,,,
2588,Salzano Municipio,45.521210,12.099703,2588,,24,,,,,,,,,,,,
2589,Salzano Municipio,45.521290,12.098329,2589,,24,,,,,,,,,,,,
2590,Oraigo Adige,45.456226,12.173573,2590,,19,,,,,,,,,,,,
2591,Oriago Venezia,45.453716,12.177533,2591,,57,,,,,,,,,,,,
2592,Oriago Ferrovia,45.454407,12.173369,2592,,19,,,,,,,,,,,,
2593,Mirano Cavin di Sala,45.500080,12.056249,2593,,53,,,,,,,,,,,,
2594,Oriago Marche,45.456352,12.171185,2594,,19,,,,,,,,,,,,
2595,Scaltenigo,45.470737,12.080319,2595,,54,,,,,,,,,,,,
2596,Campocroce Cavin Caselle,45.484421,12.050466,2596,,53,,,,,,,,,,,,
2597,Campocroce Cavin Caselle,45.484364,12.050361,2597,,53,,,,,,,,,,,,
2598,Campocroce Cimitero,45.487320,12.051551,2598,,53,,,,,,,,,,,,
2599,Campocroce Cimitero,45.487617,12.051577,2599,,53,,,,,,,,,,,,
2600,Salzano Confalonieri,45.523155,12.091851,2600,,24,,,,,,,,,,,,
2601,Salzano Confalonieri,45.522694,12.092486,2601,,24,,,,,,,,,,,,
2602,Salzano Ponte Grasso,45.525940,12.086300,2602,,24,,,,,,,,,,,,
2603,Salzano Ponte Grasso,45.526550,12.085370,2603,,24,,,,,,,,,,,,
2604,Salzano Sogaretti,45.533329,12.083160,2604,,24,,,,,,,,,,,,
2605,Salzano Sogaretti,45.532509,12.082960,2605,,24,,,,,,,,,,,,
2606,Salzano Toscanigo,45.542072,12.081952,2606,,24,,,,,,,,,,,,
2607,Salzano Toscanigo,45.542412,12.081650,2607,,24,,,,,,,,,,,,
2608,Noale Lancerotto,45.547218,12.078300,2608,,21,,,,,,,,,,,,
2609,Noale,45.552937,12.067926,2609,,21,,,,,,,,,,,,
2611,Noale Ongari,45.549110,12.078200,2611,,21,,,,,,,,,,,,
2612,Noale Ongari,45.549274,12.077913,2612,,21,,,,,,,,,,,,
2613,Noale Bacchiglione,45.548180,12.083802,2613,,21,,,,,,,,,,,,
2614,Noale Bacchiglione,45.548389,12.083081,2614,,21,,,,,,,,,,,,
2615,Noale Spagnolo,45.547417,12.088448,2615,,21,,,,,,,,,,,,
2616,Noale Spagnolo,45.547413,12.089156,2616,,21,,,,,,,,,,,,
2617,Robegano Centro,45.541389,12.124510,2617,,24,,,,,,,,,,,,
2618,Robegano Centro,45.541294,12.125638,2618,,24,,,,,,,,,,,,
2619,Robegano Monte Grappa,45.543594,12.111245,2619,,21,,,,,,,,,,,,
2620,Robegano Monte Grappa,45.543587,12.111623,2620,,21,,,,,,,,,,,,
2621,Robegano Puccini,45.542152,12.119823,2621,,24,,,,,,,,,,,,
2622,Robegano Puccini,45.542416,12.118792,2622,,24,,,,,,,,,,,,
2623,Noale Zona Industriale,45.545471,12.100738,2623,,21,,,,,,,,,,,,
2624,Noale Zona Industriale,45.545319,12.101107,2624,,21,,,,,,,,,,,,
2625,Maerne Circonvallazione,45.531853,12.150717,2625,,18,,,,,,,,,,,,
2626,Maerne Circonvallazione,45.532059,12.150664,2626,,18,,,,,,,,,,,,
2627,Robegano 25 Aprile,45.537178,12.139277,2627,,24,,,,,,,,,,,,
2628,Robegano 25 Aprile,45.537285,12.139179,2628,,24,,,,,,,,,,,,
2629,Martellago Boschi,45.550617,12.146054,2629,,18,,,,,,,,,,,,
2630,Martellago Boschi,45.550571,12.146374,2630,,18,,,,,,,,,,,,
2631,Martellago Santo Stefano,45.548050,12.151728,2631,,18,,,,,,,,,,,,
2632,Martellago Santo Stefano,45.547966,12.152192,2632,,18,,,,,,,,,,,,
2633,Martellago Ca' Combi,45.555222,12.137251,2633,,18,,,,,,,,,,,,
2634,Martellago Ca' Combi,45.554752,12.137573,2634,,18,,,,,,,,,,,,
2635,Martellago Ca' Longo,45.562340,12.129199,2635,,18,,,,,,,,,,,,
2636,Martellago Ca' Longo,45.562218,12.129239,2636,,18,,,,,,,,,,,,
2637,Scorze' Romagna,45.565231,12.119404,2637,,26,,,,,,,,,,,,
2638,Scorze' Romagna,45.565128,12.120070,2638,,26,,,,,,,,,,,,
2639,Scorze' IV Novembre,45.573151,12.104162,2639,,26,,,,,,,,,,,,
2640,Scorze' Cercariolo,45.574070,12.107295,2640,,26,,,,,,,,,,,,
2641,Scorze' Cercariolo,45.571804,12.110735,2641,,26,,,,,,,,,,,,
2642,Scorze' Fermi,45.574848,12.105686,2642,,26,,,,,,,,,,,,
2643,Scorze' Milano,45.576488,12.096308,2643,,26,,,,,,,,,,,,
2644,Scorze' Milano,45.576267,12.096992,2644,,26,,,,,,,,,,,,
2645,Scorze' Gagliardi,45.578594,12.072828,2645,,26,,,,,,,,,,,,
2646,Scorze' Gagliardi,45.578491,12.072749,2646,,26,,,,,,,,,,,,
2647,Trebaseleghe,45.591335,12.049706,2647,,41,,,,,,,,,,,,
2648,Trebaseleghe Pio X,45.586510,12.054607,2648,,41,,,,,,,,,,,,
2649,Trebaseleghe Pio X,45.586678,12.054276,2649,,41,,,,,,,,,,,,
2650,Campocroce Centro,45.492008,12.053350,2650,,53,,,,,,,,,,,,
2651,Campocroce Centro,45.491726,12.053150,2651,,53,,,,,,,,,,,,
2653,Mirano Borgo Zucchero,45.463268,12.079920,2653,,54,,,,,,,,,,,,
2654,Ballo' Borgo Zucchero,45.463280,12.080031,2654,,54,,,,,,,,,,,,
2655,Martellago Centro Anziani,45.543652,12.157190,2655,,18,,,,,,,,,,,,
2657,Gambarare Civico 94,45.426998,12.146277,2657,,51,,,,,,,,,,,,
2658,Gambarare Civico 94,45.426941,12.146341,2658,,51,,,,,,,,,,,,
2670,Trebaseleghe Manetti,45.582951,12.060935,2670,,41,,,,,,,,,,,,
2671,Trebaseleghe Manetti,45.582832,12.061006,2671,,41,,,,,,,,,,,,
2672,Scorze' San Benedetto,45.578579,12.110153,2672,,26,,,,,,,,,,,,
2673,Scorze' San Benedetto,45.578861,12.110096,2673,,26,,,,,,,,,,,,
2674,Rio San Martino,45.588844,12.110752,2674,,26,,,,,,,,,,,,
2675,Cappella,45.568485,12.146672,2675,,26,,,,,,,,,,,,
2676,Cappella,45.568363,12.146312,2676,,26,,,,,,,,,,,,
2677,Scorze' Boschi,45.568722,12.136047,2677,,26,,,,,,,,,,,,
2678,Scorze' Boschi,45.568920,12.135445,2678,,26,,,,,,,,,,,,
2679,Scorze' Guido Rossa,45.569000,12.127501,2679,,26,,,,,,,,,,,,
2680,Scorze' Guido Rossa,45.569138,12.127151,2680,,26,,,,,,,,,,,,
2681,Martellago Guizza,45.567745,12.161066,2681,,26,,,,,,,,,,,,
2682,Martellago Guizza,45.567692,12.160004,2682,,26,,,,,,,,,,,,
2683,Peseggia  Canove,45.562599,12.170631,2683,,26,,,,,,,,,,,,
2684,Peseggia  Canove,45.562656,12.171284,2684,,26,,,,,,,,,,,,
2685,Peseggia,45.562195,12.181134,2685,,26,,,,,,,,,,,,
2686,Peseggia,45.562130,12.180847,2686,,26,,,,,,,,,,,,
2687,Gardigiano,45.564404,12.197228,2687,,26,,,,,,,,,,,,
2688,Gardigiano,45.563980,12.197007,2688,,26,,,,,,,,,,,,
2689,Peseggia  Vittorio Veneto,45.562515,12.186378,2689,,26,,,,,,,,,,,,
2690,Peseggia  Vittorio Veneto,45.562462,12.185610,2690,,26,,,,,,,,,,,,
2691,Peseggia Perosi,45.563103,12.190420,2691,,26,,,,,,,,,,,,
2692,Peseggia  Perosi,45.563282,12.191072,2692,,26,,,,,,,,,,,,
2693,Gardigiano Mattarella,45.563839,12.204427,2693,,26,,,,,,,,,,,,
2694,Gardigiano Mattarella,45.564533,12.202293,2694,,26,,,,,,,,,,,,
2695,Gardigiano Donato,45.562439,12.208114,2695,,26,,,,,,,,,,,,
2696,Gardigiano Donato,45.562408,12.208939,2696,,26,,,,,,,,,,,,
2697,Mogliano Ghetto,45.558144,12.220478,2697,,3,,,,,,,,,,,,
2698,Mogliano Ghetto,45.558388,12.220176,2698,,3,,,,,,,,,,,,
2700,Mogliano Don Bosco,45.561710,12.237803,2700,,3,,,,,,,,,,,,
2701,Mogliano Centro,45.560383,12.234722,2701,,3,,,,,,,,,,,,
2704,Mogliano Marconi,45.567272,12.235334,2704,,3,,,,,,,,,,,,
2705,Mogliano Marconi,45.566792,12.235168,2705,,3,,,,,,,,,,,,
2706,Campocroce,45.582687,12.233494,2706,,5,,,,,,,,,,,,
2707,Campocroce,45.581638,12.233170,2707,,5,,,,,,,,,,,,
2708,Perarolo Dalla Vecchia,45.428581,11.975728,2708,,42,,,,,,,,,,,,
2709,Perarolo Dalla Vecchia,45.428844,11.975462,2709,,42,,,,,,,,,,,,
2710,Campocroce Chiesa,45.583477,12.222108,2710,,3,,,,,,,,,,,,
2711,Campocroce Chiesa,45.583809,12.220620,2711,,3,,,,,,,,,,,,
2712,Mogliano Strazzariole,45.590252,12.206155,2712,,3,,,,,,,,,,,,
2713,Mogliano Strazzariole,45.590359,12.205946,2713,,3,,,,,,,,,,,,
2714,Mogliano  Busa,45.593666,12.189327,2714,,3,,,,,,,,,,,,
2715,Mogliano Busa,45.593708,12.189483,2715,,3,,,,,,,,,,,,
2716,Zero Branco Kennedy,45.600254,12.175937,2716,,7,,,,,,,,,,,,
2717,Zero Branco Primo Maggio,45.600773,12.178237,2717,,7,,,,,,,,,,,,
2718,Monte Grappa XXV Aprile,45.542431,12.112340,2718,,24,,,,,,,,,,,,
2719,Zero Branco Montiron,45.602177,12.154556,2719,,49,,,,,,,,,,,,
2720,Zero Branco Montiron,45.602310,12.153853,2720,,49,,,,,,,,,,,,
2721,Sant'Alberto,45.611801,12.137567,2721,,49,,,,,,,,,,,,
2722,Sant' Alberto,45.612625,12.135809,2722,,49,,,,,,,,,,,,
2723,Sant' Alberto Bellini,45.614151,12.122266,2723,,49,,,,,,,,,,,,
2724,Sant' Alberto Bellini,45.614124,12.121465,2724,,49,,,,,,,,,,,,
2725,Scandolara Pasteur,45.616089,12.095509,2725,,49,,,,,,,,,,,,
2726,Scandolara Pasteur,45.616116,12.095300,2726,,49,,,,,,,,,,,,
2727,Scandolara,45.616188,12.102807,2727,,49,,,,,,,,,,,,
2728,Scandolara,45.616306,12.102643,2728,,49,,,,,,,,,,,,
2729,Scandolara Onaro,45.615322,12.112245,2729,,49,,,,,,,,,,,,
2730,Scandolara Onaro,45.615509,12.111755,2730,,49,,,,,,,,,,,,
2731,Trebaseleghe,45.615643,12.080998,2731,,49,,,,,,,,,,,,
2732,Trebaseleghe,45.615681,12.080641,2732,,49,,,,,,,,,,,,
2733,Badoere,45.634079,12.083335,2733,,4,,,,,,,,,,,,
2734,Badoere D'Annunzio,45.631409,12.083894,2734,,4,,,,,,,,,,,,
2735,Badoere D'Annunzio,45.631729,12.083950,2735,,4,,,,,,,,,,,,
2736,Sambughe',45.590515,12.234212,2736,,5,,,,,,,,,,,,
2737,Sambughe',45.589306,12.234231,2737,,5,,,,,,,,,,,,
2738,Preganziol Gambino,45.604301,12.235620,2738,,5,,,,,,,,,,,,
2739,Preganziol Municipio,45.602211,12.235058,2739,,5,,,,,,,,,,,,
2740,Treviso Ghirada,45.648479,12.242193,2740,,6,,,,,,,,,,,,
2741,Treviso Selvatico,45.644215,12.241366,2741,,6,,,,,,,,,,,,
2742,Frescada,45.640400,12.240904,2742,,5,,,,,,,,,,,,
2743,Dosson,45.635635,12.240370,2743,,5,,,,,,,,,,,,
2744,SanTrovaso,45.626827,12.239426,2744,,5,,,,,,,,,,,,
2745,Preganziol Baratta Nuova,45.612118,12.237094,2745,,5,,,,,,,,,,,,
2746,Preganziol  Guizzetti,45.616245,12.237988,2746,,5,,,,,,,,,,,,
2747,Le Grazie,45.619499,12.238626,2747,,5,,,,,,,,,,,,
2748,ULSS,45.630798,12.239776,2748,,5,,,,,,,,,,,,
2749,Treviso,45.661823,12.245197,2749,,6,,,,,,,,,,,,
2750,Perarolo Danzica,45.423717,11.978170,2750,,42,,,,,,,,,,,,
2751,Treviso Ghirada,45.648003,12.241693,2751,,6,,,,,,,,,,,,
2752,Treviso Selvatico,45.642979,12.241067,2752,,6,,,,,,,,,,,,
2753,Frescada,45.639877,12.240677,2753,,6,,,,,,,,,,,,
2754,Dosson,45.635818,12.240221,2754,,5,,,,,,,,,,,,
2755,ULSS,45.630638,12.239618,2755,,5,,,,,,,,,,,,
2756,San Trovaso,45.626785,12.239178,2756,,5,,,,,,,,,,,,
2757,Le Grazie,45.618427,12.238272,2757,,5,,,,,,,,,,,,
2758,Preganziol  Guizzetti,45.615871,12.237778,2758,,5,,,,,,,,,,,,
2759,Preganziol  Baratta Nuova,45.610973,12.236671,2759,,5,,,,,,,,,,,,
2760,Mogliano Don Bosco,45.561356,12.237996,2760,,3,,,,,,,,,,,,
2762,Mogliano Cimitero,45.561729,12.242403,2762,,3,,,,,,,,,,,,
2763,Mogliano Cimitero,45.561890,12.241718,2763,,3,,,,,,,,,,,,
2764,Zermanesa Parini,45.561779,12.248131,2764,,3,,,,,,,,,,,,
2765,Zermanesa Parini,45.561863,12.246878,2765,,3,,,,,,,,,,,,
2766,Mogliano Scoutismo,45.561535,12.253420,2766,,3,,,,,,,,,,,,
2767,Mogliano Scoutismo,45.561722,12.253031,2767,,3,,,,,,,,,,,,
2768,Mogliano Cortellazzo,45.564854,12.258376,2768,,3,,,,,,,,,,,,
2769,Mogliano Cortellazzo,45.564110,12.257670,2769,,3,,,,,,,,,,,,
2770,Mogliano Torni,45.559914,12.259290,2770,,3,,,,,,,,,,,,
2772,Zerman Chiesa,45.579391,12.270218,2772,,3,,,,,,,,,,,,
2773,Mogliano Fermi,45.558708,12.262870,2773,,3,,,,,,,,,,,,
2775,Mogliano Gris,45.558449,12.267456,2775,,3,,,,,,,,,,,,
2777,Marcon Milano,45.557892,12.278915,2777,,17,,,,,,,,,,,,
2778,Marcon Milano,45.557961,12.278980,2778,,17,,,,,,,,,,,,
2779,Marcon Genova,45.556236,12.283705,2779,,17,,,,,,,,,,,,
2780,Marcon Genova,45.556351,12.284020,2780,,17,,,,,,,,,,,,
2781,Marcon Ancona,45.555489,12.288843,2781,,17,,,,,,,,,,,,
2782,Marcon Ancona,45.555580,12.288603,2782,,17,,,,,,,,,,,,
2785,San Liberale Poianon,45.555996,12.347903,2785,,17,,,,,,,,,,,,
2786,San Liberale Poianon,45.555611,12.347680,2786,,17,,,,,,,,,,,,
2793,Quarto d'Altino Bellini,45.574574,12.366234,2793,,23,,,,,,,,,,,,
2794,Quarto d'Altino Bellini,45.574581,12.366090,2794,,23,,,,,,,,,,,,
2795,Quarto d'Altino Armstrong,45.571301,12.363844,2795,,23,,,,,,,,,,,,
2796,Quarto d'Altino Armstrong,45.570889,12.363420,2796,,23,,,,,,,,,,,,
2797,Quarto d'Altino Augusta,45.578903,12.373066,2797,,23,,,,,,,,,,,,
2798,Quarto d'Altino Centro,45.581039,12.368875,2798,,23,,,,,,,,,,,,
2799,Quarto d'Altino Centro,45.580910,12.369093,2799,,23,,,,,,,,,,,,
2800,Quarto d'Altino Augusta,45.579090,12.373200,2800,,23,,,,,,,,,,,,
2801,Quarto d'Altino Zanettin,45.583279,12.357084,2801,,23,,,,,,,,,,,,
2802,Quarto d'Altino Zanettin,45.583416,12.356778,2802,,23,,,,,,,,,,,,
2803,Quarto d'Altino zona indu,45.584431,12.351762,2803,,23,,,,,,,,,,,,
2804,Quarto d'Altino Industrie,45.584415,12.352007,2804,,23,,,,,,,,,,,,
2805,Casale sul Sile Matter,45.592110,12.333171,2805,,29,,,,,,,,,,,,
2806,Casale sul Sile Matter,45.592167,12.333714,2806,,29,,,,,,,,,,,,
2807,Casale Bivio Bonisiolo,45.593948,12.327131,2807,,29,,,,,,,,,,,,
2808,Casale sul Sile Bonisiolo,45.594158,12.327110,2808,,29,,,,,,,,,,,,
2811,Scorze' Crosarona,45.577927,12.081911,2811,,26,,,,,,,,,,,,
2812,Scorze' Crosarona,45.577854,12.081430,2812,,26,,,,,,,,,,,,
2813,Noale Crosariole,45.566536,12.073060,2813,,21,,,,,,,,,,,,
2814,Noale Crosariole,45.566505,12.072940,2814,,21,,,,,,,,,,,,
2815,Margherita Pioveghetta,45.571678,12.071316,2815,,21,,,,,,,,,,,,
2816,Margherita Pioveghetta,45.571571,12.072071,2816,,21,,,,,,,,,,,,
2817,Cappelletta Centro,45.571171,12.060870,2817,,21,,,,,,,,,,,,
2818,Valsugana Bigolo,45.557861,12.062183,2818,,21,,,,,,,,,,,,
2819,Moniego Centro,45.561676,12.083999,2819,,21,,,,,,,,,,,,
2820,Moniego Centro,45.561569,12.083853,2820,,21,,,,,,,,,,,,
2821,Moniego Treviso Vecchia,45.563118,12.093740,2821,,21,,,,,,,,,,,,
2823,Noale Livenza,45.546593,12.093835,2823,,21,,,,,,,,,,,,
2824,Noale Livenza,45.546398,12.094614,2824,,21,,,,,,,,,,,,
2825,Salzano Scarlatti,45.551144,12.114897,2825,,24,,,,,,,,,,,,
2826,Volta Olmara,45.559875,12.114671,2826,,26,,,,,,,,,,,,
2827,Localita' Malcanton,45.591808,12.198720,2827,,3,,,,,,,,,,,,
2828,Noale Fonda,45.553181,12.068142,2828,,21,,,,,,,,,,,,
2829,Noale Dei Novale,45.549725,12.076863,2829,,21,,,,,,,,,,,,
2830,Salzano Cimitero,45.517136,12.102596,2830,,24,,,,,,,,,,,,
2831,Salzano Cimitero,45.516926,12.102788,2831,,24,,,,,,,,,,,,
2835,Briana,45.532768,12.051221,2835,,21,,,,,,,,,,,,
2836,Noale Valli,45.537067,12.057887,2836,,21,,,,,,,,,,,,
2837,Sant Angelo Rivale,45.519157,12.028669,2837,,25,,,,,,,,,,,,
2838,Sant Angelo Rivale,45.519035,12.028965,2838,,25,,,,,,,,,,,,
2843,Santa Maria di Sala Garda,45.496140,12.007821,2843,,25,,,,,,,,,,,,
2844,Santa Maria di Sala Garda,45.496288,12.008088,2844,,25,,,,,,,,,,,,
2845,Santa Maria di Sala Torri,45.504974,12.011230,2845,,25,,,,,,,,,,,,
2846,Santa Maria di Sala Torri,45.505634,12.011610,2846,,25,,,,,,,,,,,,
2847,Mirano Galilei,45.496662,12.078156,2847,,53,,,,,,,,,,,,
2848,Mirano Galilei,45.496159,12.080269,2848,,53,,,,,,,,,,,,
2861,Mogliano San Michele,45.571030,12.264233,2861,,3,,,,,,,,,,,,
2862,Mogliano Civico 83,45.571651,12.265031,2862,,3,,,,,,,,,,,,
2863,Zerman Bonisiolo,45.576611,12.267825,2863,,3,,,,,,,,,,,,
2864,Zerman Centro Sportivo,45.576576,12.270027,2864,,3,,,,,,,,,,,,
2865,Casale sul Sile Chiesa,45.598076,12.325670,2865,,29,,,,,,,,,,,,
2866,San Liberale,45.548435,12.342180,2866,,17,,,,,,,,,,,,
2867,San Liberale,45.548382,12.341690,2867,,17,,,,,,,,,,,,
2868,Conetta Rottanova,45.178474,12.003158,2868,,13,,,,,,,,,,,,
2869,Conetta Rottanova,45.178425,12.003453,2869,,13,,,,,,,,,,,,
2870,Cona Lamarmora,45.185127,12.023103,2870,,13,,,,,,,,,,,,
2871,Cona Lamarmora,45.185181,12.023236,2871,,13,,,,,,,,,,,,
2872,Mogliano Marocchesa,45.538567,12.238498,2872,,3,,,,,,,,,,,,
2873,Mogliano Marignana,45.542076,12.236587,2873,,3,,,,,,,,,,,,
2874,Mogliano Rimini,45.549011,12.234518,2874,,3,,,,,,,,,,,,
2875,Mogliano Ronzinella,45.553055,12.234191,2875,,3,,,,,,,,,,,,
2877,Mogliano Zermanesa,45.561180,12.245209,2877,,3,,,,,,,,,,,,
2878,Mogliano Ragazzi del 99,45.558758,12.245082,2878,,3,,,,,,,,,,,,
2879,Mogliano Ragazzi del 99,45.558559,12.245247,2879,,3,,,,,,,,,,,,
2880,Campocroce,45.586170,12.215568,2880,,3,,,,,,,,,,,,
2881,Campocroce,45.586441,12.215640,2881,,3,,,,,,,,,,,,
2882,Colmello,45.559174,12.275741,2882,,3,,,,,,,,,,,,
2883,Colmello,45.559002,12.276327,2883,,3,,,,,,,,,,,,
2884,Mirano Barbato,45.502327,12.047493,2884,,53,,,,,,,,,,,,
2885,Mirano Barbato,45.502296,12.047283,2885,,53,,,,,,,,,,,,
2886,Dolo Ospedale,45.420944,12.071596,2886,,14,,,,,,,,,,,,
2887,Dolo Ospedale,45.421520,12.072497,2887,,14,,,,,,,,,,,,
2888,Camponogara Centro,45.384346,12.072011,2888,,16,,,,,,,,,,,,
2889,Camponogara,45.384430,12.072070,2889,,16,,,,,,,,,,,,
2890,San Michele delle Badesse,45.536011,11.937620,2890,,33,,,,,,,,,,,,
2891,Localita' Malcanton,45.591702,12.198780,2891,,3,,,,,,,,,,,,
2892,Zero Branco,45.601982,12.166965,2892,,7,,,,,,,,,,,,
2893,Zero Branco,45.601879,12.165520,2893,,7,,,,,,,,,,,,
2894,Fosso' Zona Industriale,45.398544,12.051587,2894,,16,,,,,,,,,,,,
2895,Fosso' Zona Industriale,45.398495,12.051827,2895,,16,,,,,,,,,,,,
2896,Fosso' Bosello,45.376575,12.046719,2896,,16,,,,,,,,,,,,
2897,Fosso' Bosello,45.376263,12.046800,2897,,16,,,,,,,,,,,,
2902,Rottanova Civico 18,45.157795,12.003718,2902,,50,,,,,,,,,,,,
2903,Stazione Pegolotte,45.193108,12.041096,2903,,13,,,,,,,,,,,,
2904,Stazione Pegolotte,45.193363,12.041329,2904,,13,,,,,,,,,,,,
2905,Corezzola,45.205189,12.096824,2905,,13,,,,,,,,,,,,
2906,Corezzola,45.205166,12.096729,2906,,13,,,,,,,,,,,,
2907,Cantarana Paese,45.199837,12.098585,2907,,13,,,,,,,,,,,,
2908,Rosara,45.289780,12.130331,2908,,34,,,,,,,,,,,,
2909,Rosara,45.290295,12.130531,2909,,34,,,,,,,,,,,,
2910,Lova,45.327019,12.133853,2910,,8,,,,,,,,,,,,
2911,Lova,45.327877,12.134124,2911,,8,,,,,,,,,,,,
2912,Romea Canale Piccolo,45.340031,12.135093,2912,,8,,,,,,,,,,,,
2913,Romea Canale Piccolo,45.340202,12.135276,2913,,8,,,,,,,,,,,,
2914,Lugo,45.367821,12.138003,2914,,8,,,,,,,,,,,,
2915,Romea Lughetto,45.390800,12.139938,2915,,8,,,,,,,,,,,,
2916,Lugo,45.366325,12.137722,2916,,8,,,,,,,,,,,,
2917,Romea Lughetto,45.389809,12.139659,2917,,8,,,,,,,,,,,,
2918,Lugo Zona Industriale,45.371910,12.135027,2918,,8,,,,,,,,,,,,
2919,Lughetto Rampado,45.378002,12.131669,2919,,8,,,,,,,,,,,,
2920,Lughetto Rampado,45.377796,12.131681,2920,,8,,,,,,,,,,,,
2921,Lughetto,45.382576,12.129183,2921,,8,,,,,,,,,,,,
2922,Lughetto,45.382771,12.129200,2922,,8,,,,,,,,,,,,
2923,Lughetto Di Vittorio,45.385674,12.127352,2923,,8,,,,,,,,,,,,
2924,Lughetto Di Vittorio,45.385780,12.127429,2924,,8,,,,,,,,,,,,
2925,Adria Scuole,45.050419,12.049300,2925,,43,,,,,,,,,,,,
2926,Adria Scuole,45.050755,12.049218,2926,,43,,,,,,,,,,,,
2927,Cavarzere Capitello,45.094215,12.113350,2927,,50,,,,,,,,,,,,
2928,Cavarzere Acquamarza,45.102348,12.138524,2928,,50,,,,,,,,,,,,
2929,Cavarzere Punta Pali,45.102921,12.147476,2929,,50,,,,,,,,,,,,
2930,Cavarzere Ca' Briani,45.116192,12.139694,2930,,50,,,,,,,,,,,,
2931,Cavarzere Ca' Tron,45.121235,12.113527,2931,,50,,,,,,,,,,,,
2932,Cavarzere Tartaro,45.123425,12.088877,2932,,50,,,,,,,,,,,,
2933,Pettorazza Provinciale,45.133289,12.029612,2933,,45,,,,,,,,,,,,
2934,Pettorazza Provinciale,45.133148,12.029675,2934,,45,,,,,,,,,,,,
2935,Pettorazza Industriale,45.134830,12.010777,2935,,45,,,,,,,,,,,,
2936,Pettorazza Zona Industria,45.134747,12.010856,2936,,45,,,,,,,,,,,,
2939,Scaltenigo,45.470486,12.080493,2939,,54,,,,,,,,,,,,
2940,Corezzola Cantarana,45.205090,12.093128,2940,,13,,,,,,,,,,,,
2941,Correzzola  Cantarana,45.205112,12.092634,2941,,13,,,,,,,,,,,,
2943,Mellaredo Vivaldi,45.459122,11.995971,2943,,22,,,,,,,,,,,,
2944,Mellaredo Vivaldi,45.459209,11.995850,2944,,22,,,,,,,,,,,,
2945,Ferrovia Pionca,45.442612,12.046019,2945,,14,,,,,,,,,,,,
2946,Ferrovia Pionca,45.442619,12.046166,2946,,14,,,,,,,,,,,,
2950,Mogliano Terraglio,45.560276,12.234124,2950,,3,,,,,,,,,,,,
2951,Mogliano Centro,45.560070,12.234929,2951,,3,,,,,,,,,,,,
2952,Vetrego,45.457184,12.098269,2952,,54,,,,,,,,,,,,
2953,Vetrego Pra',45.458561,12.106274,2953,,54,,,,,,,,,,,,
2954,Vetrego Pra',45.458111,12.105979,2954,,54,,,,,,,,,,,,
2957,Mira Alfieri,45.434246,12.120922,2957,,51,,,,,,,,,,,,
2960,Vetrego,45.456932,12.098926,2960,,54,,,,,,,,,,,,
2961,Monte Grappa XXV Aprile,45.542362,12.112147,2961,,24,,,,,,,,,,,,
2962,Salzano Roma,45.521732,12.108721,2962,,24,,,,,,,,,,,,
2963,Salzano Roma,45.521805,12.108560,2963,,24,,,,,,,,,,,,
2964,Cornarotta Scarlatti,45.551010,12.114710,2964,,24,,,,,,,,,,,,
2965,Scorze' Olmara,45.559277,12.114738,2965,,26,,,,,,,,,,,,
2969,Martellago Friuli,45.545658,12.154912,2969,,18,,,,,,,,,,,,
2970,Martellago Friuli,45.546097,12.155103,2970,,18,,,,,,,,,,,,
2972,Mogliano Bellini,45.553741,12.262768,2972,,3,,,,,,,,,,,,
2973,Mogliano Bellini,45.553612,12.263341,2973,,3,,,,,,,,,,,,
2976,Mogliano Ragusa,45.554283,12.252267,2976,,3,,,,,,,,,,,,
2977,Mogliano Ragusa,45.554111,12.253277,2977,,3,,,,,,,,,,,,
2978,Mogliano dei Tulipani,45.554420,12.249840,2978,,3,,,,,,,,,,,,
2979,Mogliano dei Tulipani,45.554276,12.250619,2979,,3,,,,,,,,,,,,
2981,Maerne FS,45.517788,12.151780,2981,,18,,,,,,,,,,,,
2983,Trezzo Battuti,45.506317,12.247900,2983,,48,,,,,,,,,,,,
2984,Trezzo Battuti,45.506321,12.248069,2984,,48,,,,,,,,,,,,
2985,Mogliano Campi Sportivi,45.555859,12.246202,2985,,3,,,,,,,,,,,,
2986,Mogliano Campi Sportivi,45.556797,12.246386,2986,,3,,,,,,,,,,,,
2989,Santa Margherita,45.247761,12.138085,2989,,55,,,,,,,,,,,,
2990,Santa Margherita,45.246464,12.139880,2990,,55,,,,,,,,,,,,
2991,Codevigo Argine Sinistro,45.239689,12.147414,2991,,55,,,,,,,,,,,,
2992,Codevigo Argine Sinistro,45.239956,12.147342,2992,,55,,,,,,,,,,,,
2993,Codevigo Civico 13,45.236401,12.155176,2993,,55,,,,,,,,,,,,
2994,Codevigo Civico 13,45.236263,12.155236,2994,,55,,,,,,,,,,,,
2995,Conche,45.233463,12.165577,2995,,55,,,,,,,,,,,,
2996,Conche,45.233238,12.165702,2996,,55,,,,,,,,,,,,
2997,Valli Porcellana,45.226421,12.182846,2997,,2,,,,,,,,,,,,
2998,Valli Porcellana,45.226612,12.182616,2998,,2,,,,,,,,,,,,
2999,Chioggia Valli,45.224243,12.194175,2999,,2,,,,,,,,,,,,
3000,Chioggia Valli,45.224583,12.193503,3000,,2,,,,,,,,,,,,
3001,Chioggia Campo Marconi,45.215157,12.276977,3001,,2,,,,,,,,,,,,
3033,Ca' Pasqua Provinciale 7,45.183262,12.239337,3033,,56,,,,,,,,,,,,
3034,Ca' Pasqua Provinciale 7,45.183392,12.239444,3034,,56,,,,,,,,,,,,
3035,Chioggia  Civico 12,45.172733,12.238131,3035,,56,,,,,,,,,,,,
3036,Chioggia Civico 12,45.172352,12.238179,3036,,56,,,,,,,,,,,,
3037,Valcerere Dolfina,45.155746,12.209835,3037,,11,,,,,,,,,,,,
3038,Valcerere Dolfina,45.155716,12.209903,3038,,11,,,,,,,,,,,,
3039,Cavarzere San Gaetano,45.148087,12.190555,3039,,11,,,,,,,,,,,,
3040,Cavarzere San Gaetano,45.148109,12.190798,3040,,11,,,,,,,,,,,,
3041,Dolfina Chilometro 9,45.142872,12.174828,3041,,11,,,,,,,,,,,,
3042,Dolfina Chilometro 9,45.142967,12.175232,3042,,11,,,,,,,,,,,,
3043,Dolfina Chiusa,45.133198,12.152015,3043,,11,,,,,,,,,,,,
3044,Dolfina Chiusa,45.133129,12.151956,3044,,11,,,,,,,,,,,,
3045,Boscochiaro Braghetta,45.132774,12.140670,3045,,11,,,,,,,,,,,,
3046,Boscochiaro Braghetta,45.132671,12.140968,3046,,11,,,,,,,,,,,,
3047,Dolfina,45.153778,12.208928,3047,,11,,,,,,,,,,,,
3048,Dolfina,45.153805,12.209020,3048,,11,,,,,,,,,,,,
3049,Cavarzere Strada Km 13,45.141220,12.206114,3049,,11,,,,,,,,,,,,
3050,Cavarzere Strada Km 13,45.141399,12.206266,3050,,11,,,,,,,,,,,,
3051,Cavarzere 13,45.130524,12.200333,3051,,11,,,,,,,,,,,,
3052,Cavarzere 13,45.130646,12.200438,3052,,11,,,,,,,,,,,,
3053,Cavarzere 244,45.121708,12.199306,3053,,11,,,,,,,,,,,,
3054,Cavarzere 244,45.121796,12.199409,3054,,11,,,,,,,,,,,,
3055,San Pietro,45.115482,12.188371,3055,,11,,,,,,,,,,,,
3056,San Pietro,45.115463,12.188498,3056,,11,,,,,,,,,,,,
3057,San Pietro Bebbe,45.112156,12.191379,3057,,11,,,,,,,,,,,,
3058,San Pietro Bebbe,45.112221,12.191438,3058,,11,,,,,,,,,,,,
3059,Cavarzere San Pietro,45.105835,12.206096,3059,,11,,,,,,,,,,,,
3060,Cavarzere SanPietro,45.105892,12.206067,3060,,11,,,,,,,,,,,,
3061,Romea Cavanella,45.105492,12.221913,3061,,56,,,,,,,,,,,,
3062,Romea Cavanella,45.105511,12.221657,3062,,56,,,,,,,,,,,,
3063,Cavanella,45.109142,12.246166,3063,,56,,,,,,,,,,,,
3064,Cavanella,45.109051,12.245495,3064,,56,,,,,,,,,,,,
3065,Romea del Bosco,45.113922,12.250840,3065,,56,,,,,,,,,,,,
3066,Romea del Bosco,45.114338,12.250931,3066,,56,,,,,,,,,,,,
3069,Romea Pegorina,45.127224,12.257625,3069,,56,,,,,,,,,,,,
3070,Romea Pegorina,45.127037,12.257383,3070,,56,,,,,,,,,,,,
3071,Romea Canal di Valle,45.131100,12.259663,3071,,56,,,,,,,,,,,,
3072,Romea Canal diValle,45.131130,12.259532,3072,,56,,,,,,,,,,,,
3075,Romea Primavera,45.141476,12.265073,3075,,56,,,,,,,,,,,,
3076,Romea Primavera,45.142120,12.265178,3076,,56,,,,,,,,,,,,
3077,Romea Sant' Anna,45.146275,12.267530,3077,,56,,,,,,,,,,,,
3078,Romea Sant' Anna,45.145599,12.266981,3078,,56,,,,,,,,,,,,
3081,Romea Ca' Lino,45.158802,12.272258,3081,,56,,,,,,,,,,,,
3082,Romea Ca' Lino,45.158302,12.271959,3082,,56,,,,,,,,,,,,
3083,Romea Civico 456,45.168533,12.274226,3083,,56,,,,,,,,,,,,
3084,Romea Civico 456,45.168495,12.274049,3084,,56,,,,,,,,,,,,
3110,Rebosola 21,45.183735,12.252728,3110,,56,,,,,,,,,,,,
3111,Rebosola 21,45.183781,12.254249,3111,,56,,,,,,,,,,,,
3112,Rebosola Darsena,45.183376,12.266861,3112,,56,,,,,,,,,,,,
3113,Brondolo Darsena,45.183414,12.266437,3113,,56,,,,,,,,,,,,
3114,Brondolo Ponte,45.184746,12.271538,3114,,56,,,,,,,,,,,,
3115,Brondolo Ponte,45.184883,12.271551,3115,,56,,,,,,,,,,,,
3118,Chioggia Ponte Trezze,45.221142,12.209111,3118,,2,,,,,,,,,,,,
3119,Chioggia Ponte Trezze,45.220448,12.211142,3119,,2,,,,,,,,,,,,
3120,Chioggia della Larga,45.223289,12.199152,3120,,2,,,,,,,,,,,,
3121,Chioggia della Larga,45.223160,12.199230,3121,,2,,,,,,,,,,,,
3125,Dolo Seriola,45.422489,12.095351,3125,,14,,,,,,,,,,,,
3126,Dolo Seriola,45.422314,12.095214,3126,,14,,,,,,,,,,,,
3143,Mira Stazione FS,45.427174,12.138822,3143,,51,,,,,,,,,,,,
3145,Chioggia Borgo San Giovan,45.207920,12.275845,3145,,2,,,,,,,,,,,,
3146,Brondolo Ortofrutticolo,45.185127,12.275800,3146,,56,,,,,,,,,,,,
3255,Tosatto Impastato,45.512245,12.227994,3255,,48,,,,,,,,,,,,
3256,VIA Bella,45.507351,12.228919,3256,,48,,,,,,,,,,,,
3257,VIA Bella,45.507725,12.228721,3257,,48,,,,,,,,,,,,
3267,Sottomarina,45.212536,12.292026,3267,,2,,,,,,,,,,,,
3302,Sottomarina Pisani,45.203907,12.299715,3302,,2,,,,,,,,,,,,
3309,Sottomarina Pisani,45.203468,12.299657,3309,,2,,,,,,,,,,,,
3313,Sottomarina Da Verrazzano,45.197666,12.294862,3313,,2,,,,,,,,,,,,
3316,Sottomarina Celsi,45.196922,12.285829,3316,,2,,,,,,,,,,,,
3317,Sottomarina Celsi,45.196678,12.284728,3317,,2,,,,,,,,,,,,
3320,Sottomarina Da Verazzano,45.197662,12.295677,3320,,2,,,,,,,,,,,,
3329,Chioggia  DeGasperi,45.199524,12.277110,3329,,2,,,,,,,,,,,,
3331,Chioggia DeNicola,45.203461,12.276779,3331,,2,,,,,,,,,,,,
3332,Chioggia Berlinguer,45.205650,12.276376,3332,,2,,,,,,,,,,,,
3333,Chioggia FS,45.210243,12.276114,3333,,2,,,,,,,,,,,,
3347,Chioggia Cicogna,45.195179,12.282193,3347,,2,,,,,,,,,,,,
3352,Brondolo,45.184532,12.278620,3352,,56,,,,,,,,,,,,
3356,Venturini Cicogna,45.195282,12.282354,3356,,2,,,,,,,,,,,,
3357,Pettorazza San Girolamo,45.134636,11.979609,3357,,45,,,,,,,,,,,,
3359,Noale Valli,45.537518,12.059171,3359,,21,,,,,,,,,,,,
3360,Noale Fonda,45.553082,12.068548,3360,,21,,,,,,,,,,,,
3361,Valsugana Bigolo,45.558014,12.062106,3361,,21,,,,,,,,,,,,
3362,Cappelletta Centro,45.571095,12.060745,3362,,21,,,,,,,,,,,,
3363,Moniego Treviso Vecchia,45.562954,12.093463,3363,,21,,,,,,,,,,,,
3364,Scorze' Venezia,45.569996,12.110355,3364,,26,,,,,,,,,,,,
3365,Scorze' Venezia,45.569859,12.111614,3365,,26,,,,,,,,,,,,
3366,Rio San Martino,45.588634,12.110336,3366,,26,,,,,,,,,,,,
3367,Rio San Martino,45.588188,12.110498,3367,,26,,,,,,,,,,,,
3369,Tabina,45.607674,12.111437,3369,,26,,,,,,,,,,,,
3370,Tabina,45.607971,12.111606,3370,,26,,,,,,,,,,,,
3371,Scorze' Buonarroti,45.601074,12.111442,3371,,26,,,,,,,,,,,,
3372,Scorze' Buonarroti,45.599754,12.111421,3372,,26,,,,,,,,,,,,
3373,Scorze' Gallese,45.591621,12.110573,3373,,26,,,,,,,,,,,,
3374,Scorze' Gallese,45.591625,12.110735,3374,,26,,,,,,,,,,,,
3375,Borgoricco Croce Ruzza,45.533962,11.948192,3375,,33,,,,,,,,,,,,
3376,Borgoricco Croce Ruzza,45.534092,11.948024,3376,,33,,,,,,,,,,,,
3377,San Michele delle Badesse,45.535858,11.937942,3377,,33,,,,,,,,,,,,
3378,Borgoricco Industriale,45.532806,11.959503,3378,,33,,,,,,,,,,,,
3379,Scorze'  Da Vinci,45.594940,12.110882,3379,,26,,,,,,,,,,,,
3380,Scorze' Da Vinci,45.595497,12.111046,3380,,26,,,,,,,,,,,,
3383,Briana,45.532921,12.051340,3383,,21,,,,,,,,,,,,
3384,Maerne Guardi,45.520706,12.153688,3384,,18,,,,,,,,,,,,
3385,Maerne Guardi,45.520027,12.153366,3385,,18,,,,,,,,,,,,
3388,Noale Lancerotto,45.547119,12.078700,3388,,21,,,,,,,,,,,,
3389,Mirano Parini,45.493797,12.125785,3389,,20,,,,,,,,,,,,
3390,Mirano Parini,45.493660,12.125738,3390,,20,,,,,,,,,,,,
3398,Mira Mare Mediterraneo,45.433136,12.139727,3398,,51,,,,,,,,,,,,
3399,Cavarzere Gorzone,45.144077,12.086006,3399,,50,,,,,,,,,,,,
3400,Cavarzere Brondolini,45.144924,12.083512,3400,,50,,,,,,,,,,,,
3401,Cavarzere Brondolini,45.144806,12.083382,3401,,50,,,,,,,,,,,,
3402,Cavarzere Mattei,45.144459,12.080318,3402,,50,,,,,,,,,,,,
3404,Triestina ulss 3,45.503998,12.285759,3404,,48,,,,,,,,,,,,
3406,Rottanova Civico 18,45.157856,12.003767,3406,,50,,,,,,,,,,,,
3407,Oriago Romagna,45.453423,12.177642,3407,,57,,,,,,,,,,,,
3408,Mirano Ospedale,45.497860,12.116247,3408,,20,,,,,,,,,,,,
3409,Mirano Miranese,45.498074,12.119153,3409,,20,,,,,,,,,,,,
3410,Mirano Treviso,45.498257,12.118967,3410,,20,,,,,,,,,,,,
3411,Mirano Delle Erbe,45.492374,12.111150,3411,,20,,,,,,,,,,,,
3412,Mirano Delle Erbe,45.492554,12.110903,3412,,20,,,,,,,,,,,,
3414,Vigonovo Centro,45.386349,12.007555,3414,,40,,,,,,,,,,,,
3415,Vigonovo,45.386402,12.007436,3415,,40,,,,,,,,,,,,
3416,Vigonovo 1 Maggio,45.388962,12.005020,3416,,40,,,,,,,,,,,,
3417,Vigonovo Roma,45.375854,12.005845,3417,,40,,,,,,,,,,,,
3418,Vigonovo Roma,45.375767,12.006331,3418,,40,,,,,,,,,,,,
3421,Matteotti Celeseo,45.370869,12.012296,3421,,40,,,,,,,,,,,,
3423,Mira Municipio,45.433319,12.123930,3423,,51,,,,,,,,,,,,
3425,Calcroci,45.384987,12.095307,3425,,16,,,,,,,,,,,,
3426,Calcroci,45.384991,12.096012,3426,,16,,,,,,,,,,,,
3427,ProzzoloTogliatti,45.368835,12.092979,3427,,16,,,,,,,,,,,,
3428,Gramsci Togliatti,45.368748,12.092863,3428,,16,,,,,,,,,,,,
3429,Adria Molinterran,45.050949,12.062625,3429,,43,,,,,,,,,,,,
3430,San Pietro Chiesa,45.115696,12.185613,3430,,11,,,,,,,,,,,,
3432,Dolo Civico 75,45.427727,12.105423,3432,,14,,,,,,,,,,,,
3433,Mira Albrizzi,45.432056,12.113711,3433,,51,,,,,,,,,,,,
3434,MIra centro,45.433414,12.121724,3434,,51,,,,,,,,,,,,
3435,Oriago Stazione,45.449043,12.166224,3435,,51,,,,,,,,,,,,
3436,Oriago Centro,45.451534,12.171331,3436,,19,,,,,,,,,,,,
3437,Adria Errmont,45.044678,12.059743,3437,,43,,,,,,,,,,,,
3438,Lugo Zona Industriale,45.371803,12.134976,3438,,8,,,,,,,,,,,,
3439,Maddalena Rottanova,45.141716,12.013440,3439,,50,,,,,,,,,,,,
3440,Adria Ospedale,45.047897,12.055677,3440,,43,,,,,,,,,,,,
3441,Adria Ospedale,45.048103,12.055781,3441,,43,,,,,,,,,,,,
3446,Fiesso D'Artico Barbariga,45.412476,12.016622,3446,,28,,,,,,,,,,,,
3447,Fiesso Barbariga,45.412491,12.017076,3447,,28,,,,,,,,,,,,
3448,Fiesso D'Artico Piove,45.418232,12.050324,3448,,28,,,,,,,,,,,,
3449,Fiesso Piove,45.418358,12.053442,3449,,28,,,,,,,,,,,,
3450,Gorzone Ca' Pasqua,45.183567,12.242982,3450,,56,,,,,,,,,,,,
3451,Mirano Colombo,45.495140,12.111939,3451,,20,,,,,,,,,,,,
3452,Mirano Colombo,45.495228,12.111835,3452,,20,,,,,,,,,,,,
3453,Mirano Vicenza,45.495617,12.117689,3453,,20,,,,,,,,,,,,
3454,Cavarzere Tartaro,45.123577,12.088488,3454,,50,,,,,,,,,,,,
3455,Cavarzere Ca' Tron,45.121185,12.113641,3455,,50,,,,,,,,,,,,
3456,Cavarzere 2 Ca' Briani,45.116146,12.139312,3456,,50,,,,,,,,,,,,
3457,Cavarzere Punta Pali,45.102905,12.147351,3457,,50,,,,,,,,,,,,
3458,Cavarzere Acquamarza,45.102394,12.138471,3458,,50,,,,,,,,,,,,
3459,Cavarzere Capitello,45.094074,12.113345,3459,,50,,,,,,,,,,,,
3460,Cavarzere 60,45.087406,12.109241,3460,,50,,,,,,,,,,,,
3461,Grignella Strada Poli,45.072041,12.099368,3461,,50,,,,,,,,,,,,
3462,Cavarzere Grignella,45.076805,12.091895,3462,,50,,,,,,,,,,,,
3463,Cavarzere Cuora,45.080109,12.086705,3463,,50,,,,,,,,,,,,
3464,Salesiani Ferrarese,45.491306,12.205975,3464,,48,,,,,,,,,,,,
3465,Agenzia  Entrate,45.470142,12.210086,3465,,48,,,,,,,,,,,,
3475,Mogliano Tommasini,45.558308,12.269501,3475,,3,,,,,,,,,,,,
3476,Mogliano Tommasini,45.557842,12.269488,3476,,3,,,,,,,,,,,,
3477,Padova Turazza,45.409161,11.903703,3477,,36,,,,,,,,,,,,
3480,Martellago Piazza Bertati,45.545860,12.157487,3480,,18,,,,,,,,,,,,
3481,Mirano Scuole,45.496143,12.095526,3481,,53,,,,,,,,,,,,
3490,Spinea Martiri,45.492386,12.150491,3490,,27,,,,,,,,,,,,
3501,Brondolo,45.184605,12.278832,3501,,56,,,,,,,,,,,,
3504,Via dei Cantieri Cantiere,45.427628,12.256949,3504,,48,,,,,,,,,,,,
3527,Campoverardo Scuole,45.394131,12.063691,3527,,16,,,,,,,,,,,,
3528,Campoverardo Scuole,45.394012,12.063465,3528,,16,,,,,,,,,,,,
3529,Camponogara Arzerini,45.397480,12.080667,3529,,16,,,,,,,,,,,,
3530,Pellico Arzerini,45.397427,12.080766,3530,,16,,,,,,,,,,,,
3539,Mira Alfieri,45.435020,12.123118,3539,,51,,,,,,,,,,,,
3541,Scaramuzza Gatta,45.533245,12.217917,3541,,48,,,,,,,,,,,,
3543,Scaramuzza Forte,45.526337,12.217097,3543,,48,,,,,,,,,,,,
3545,Scaramuzza Sicilia,45.520321,12.214416,3545,,48,,,,,,,,,,,,
3547,Scaramuzza Caprera,45.516903,12.213061,3547,,48,,,,,,,,,,,,
3549,Scaramuzza Rubens,45.513393,12.213642,3549,,48,,,,,,,,,,,,
3551,Selvanese Visinoni,45.511391,12.205256,3551,,48,,,,,,,,,,,,
3552,Selvanese Visinoni,45.510635,12.206181,3552,,48,,,,,,,,,,,,
3553,Tito Castellana,45.515732,12.205283,3553,,48,,,,,,,,,,,,
3554,Tito Castellana,45.515427,12.204726,3554,,48,,,,,,,,,,,,
3555,Casale sul Sile Toniolo,45.586567,12.324215,3555,,29,,,,,,,,,,,,
3556,Casale sul Sile Toniolo,45.586300,12.324056,3556,,29,,,,,,,,,,,,
3557,Bonisiolo degli Angeli,45.582027,12.320973,3557,,3,,,,,,,,,,,,
3558,Bonisiolo  degli Angeli,45.582119,12.321526,3558,,3,,,,,,,,,,,,
3559,Bonisiolo Centro,45.582329,12.314651,3559,,3,,,,,,,,,,,,
3560,Centro Bonisiolo,45.582375,12.315070,3560,,3,,,,,,,,,,,,
3564,Mogliano Centro,45.559353,12.234570,3564,,3,,,,,,,,,,,,
3566,Scorze' Moglianese,45.568810,12.113795,3566,,26,,,,,,,,,,,,
3567,Scorze' Moglianese,45.568417,12.113994,3567,,26,,,,,,,,,,,,
3568,Pertini Carrer,45.485291,12.264886,3568,,48,,,,,,,,,,,,
3569,Correzzola Sasso,45.236069,12.023341,3569,,35,,,,,,,,,,,,
3572,Cavarzere Romea Bruso,45.185566,12.086353,3572,,13,,,,,,,,,,,,
3573,Cona Localita' Bruso,45.185547,12.086503,3573,,13,,,,,,,,,,,,
3574,Pertini Foscari,45.491085,12.269073,3574,,48,,,,,,,,,,,,
3579,Mira Riviera,45.433872,12.131487,3579,,51,,,,,,,,,,,,
3580,Mira Riviera,45.433849,12.132255,3580,,51,,,,,,,,,,,,
3581,Cappelletta Casone,45.568237,12.060870,3581,,21,,,,,,,,,,,,
3582,Cappelletta Casone,45.567905,12.061001,3582,,21,,,,,,,,,,,,
3583,Tosatto Paccagnella,45.511143,12.229723,3583,,48,,,,,,,,,,,,
3588,Stazione MESTRE FS,45.482243,12.233741,3588,,48,,,,,,,,,,,,
3595,Martellago Fapanni,45.542744,12.156604,3595,,18,,,,,,,,,,,,
3596,Martellago Fapanni,45.542610,12.157536,3596,,18,,,,,,,,,,,,
3598,Dolo Foro Boario,45.421505,12.072879,3598,,14,,,,,,,,,,,,
3599,Roncoduro Industriale,45.450165,12.076610,3599,,22,,,,,,,,,,,,
3600,Roncoduro Industriale,45.450249,12.076350,3600,,54,,,,,,,,,,,,
3601,Mirano Matteottti,45.494789,12.092739,3601,,53,,,,,,,,,,,,
3602,Mirano Matteotti,45.495083,12.093315,3602,,53,,,,,,,,,,,,
3606,Borgo San Giovanni,45.207783,12.275690,3606,,2,,,,,,,,,,,,
3607,Corte,45.310081,12.074160,3607,,37,,,,,,,,,,,,
3608,Corte Monumento,45.310158,12.074422,3608,,37,,,,,,,,,,,,
3610,Olmo Pellico,45.516827,12.188975,3610,,18,,,,,,,,,,,,
3611,Olmo Pellico,45.516499,12.189560,3611,,18,,,,,,,,,,,,
3612,Selvanese Pleiadi,45.515133,12.199144,3612,,48,,,,,,,,,,,,
3613,Selvanese Pleiadi,45.514435,12.200114,3613,,48,,,,,,,,,,,,
3614,Visinoni Selvanese,45.506382,12.205321,3614,,48,,,,,,,,,,,,
3615,Visinoni Selvanese,45.506809,12.205911,3615,,48,,,,,,,,,,,,
3616,Vigonovo Alfieri,45.405025,11.999126,3616,,40,,,,,,,,,,,,
3617,Vigonovo Alfieri,45.405148,11.999170,3617,,40,,,,,,,,,,,,
3621,Rielta Parco Bissuola,45.502338,12.260176,3621,,48,,,,,,,,,,,,
3623,Scorze' Roma,45.573692,12.106868,3623,,26,,,,,,,,,,,,
3624,Areoporto MARCO POLO,45.504314,12.339102,3624,,48,,,,,,,,,,,,
3625,Aeroporto MARCO POLO,45.504356,12.339087,3625,,48,,,,,,,,,,,,
3626,Aeroporto MARCO POLO,45.504662,12.339082,3626,,48,,,,,,,,,,,,
3629,Casona Vallenari,45.499763,12.267142,3629,,48,,,,,,,,,,,,
3630,Casona Vallenari,45.499554,12.266877,3630,,48,,,,,,,,,,,,
3631,Rielta Ca' Rossa,45.502201,12.255488,3631,,48,,,,,,,,,,,,
3644,Lova San Marco,45.326813,12.124451,3644,,8,,,,,,,,,,,,
3648,Azoto Sottana,45.466942,12.235358,3648,,48,,,,,,,,,,,,
3649,Cavarzere Bellina,45.131897,12.061417,3649,,50,,,,,,,,,,,,
3650,Martellago Ariosto,45.568138,12.152822,3650,,26,,,,,,,,,,,,
3651,Martellago Ariosto,45.568012,12.152924,3651,,26,,,,,,,,,,,,
3652,Cavarzere Bellina,45.131809,12.062107,3652,,50,,,,,,,,,,,,
3653,Vallenari Stoppani,45.498581,12.269053,3653,,48,,,,,,,,,,,,
3654,Vallenari Stoppani,45.498486,12.269010,3654,,48,,,,,,,,,,,,
3655,delle Messi Bissuola,45.494667,12.268067,3655,,48,,,,,,,,,,,,
3659,Delle Macchine Bandiera,45.476265,12.233085,3659,,48,,,,,,,,,,,,
3661,Boscochiaro Liberazione,45.131248,12.125573,3661,,50,,,,,,,,,,,,
3662,Boscochiaro Liberazione,45.131176,12.125551,3662,,50,,,,,,,,,,,,
3663,Cavarzere Viola,45.123966,12.139761,3663,,50,,,,,,,,,,,,
3664,Cavarzere Viola,45.123924,12.139717,3664,,50,,,,,,,,,,,,
3666,Zerman,45.579128,12.271570,3666,,3,,,,,,,,,,,,
3667,Quarto d'Altino Zona Indu,45.583317,12.352627,3667,,23,,,,,,,,,,,,
4503,San Nicolo' Cipro,45.424053,12.377303,4503,,1,,,,,,,,,,,,
4504,D'Annunzio Duodo,45.419216,12.380237,4504,,1,,,,,,,,,,,,
4505,D'Annunzio Pola,45.417770,12.378980,4505,,1,,,,,,,,,,,,
4506,D'Annunzio Pola,45.417843,12.379230,4506,,1,,,,,,,,,,,,
4507,D'Annunzio Spiagge,45.415627,12.377144,4507,,1,,,,,,,,,,,,
4508,D'Annunzio Spiagge,45.416168,12.377779,4508,,1,,,,,,,,,,,,
4511,Gran Viale,45.415970,12.372196,4511,,1,,,,,,,,,,,,
4512,Gran Viale,45.415951,12.371822,4512,,1,,,,,,,,,,,,
4514,San Nicolo' Aquileia,45.419773,12.374946,4514,,1,,,,,,,,,,,,
4515,San Nicolo' Aquileia,45.420372,12.375385,4515,,1,,,,,,,,,,,,
4516,San Nicolo' Marco Polo,45.422390,12.376612,4516,,1,,,,,,,,,,,,
4517,San Nicolo' Marco Polo,45.422264,12.376378,4517,,1,,,,,,,,,,,,
4518,San Nicolo' Cipro,45.424210,12.377517,4518,,1,,,,,,,,,,,,
4520,Morandi Nicelli,45.427013,12.381078,4520,,1,,,,,,,,,,,,
4521,San Nicolo' Chiesa,45.428352,12.380315,4521,,1,,,,,,,,,,,,
4522,Ospizio Marino Cimitero,45.422874,12.382676,4522,,1,,,,,,,,,,,,
4523,San Nicolo',45.430008,12.381871,4523,,1,,,,,,,,,,,,
4524,Santa Maria Elisabetta,45.417820,12.368981,4524,,1,,,,,,,,,,,,
4525,Santa Maria Elisabetta,45.417439,12.368489,4525,,1,,,,,,,,,,,,
4527,Ospizio Marino Cimitero,45.423306,12.383001,4527,,1,,,,,,,,,,,,
4528,Gallo Contarini,45.411617,12.366850,4528,,1,,,,,,,,,,,,
4529,Gallo Contarini,45.411201,12.366800,4529,,1,,,,,,,,,,,,
4530,Gallo Barbarigo,45.409149,12.365871,4530,,1,,,,,,,,,,,,
4531,Gallo Barbarigo,45.409649,12.366213,4531,,1,,,,,,,,,,,,
4532,Gallo Morosini,45.405518,12.363915,4532,,1,,,,,,,,,,,,
4533,Gallo Morosini,45.405449,12.364062,4533,,1,,,,,,,,,,,,
4534,Gallo Sant'Antonio,45.402733,12.361843,4534,,1,,,,,,,,,,,,
4535,Gallo Sant'Antonio,45.403084,12.362309,4535,,1,,,,,,,,,,,,
4536,Gallo Loredan,45.401276,12.360689,4536,,1,,,,,,,,,,,,
4537,Gallo Loredan,45.401508,12.361128,4537,,1,,,,,,,,,,,,
4538,Gallo Torta,45.399082,12.359012,4538,,1,,,,,,,,,,,,
4539,Gallo Torta,45.399181,12.359373,4539,,1,,,,,,,,,,,,
4540,Colombo,45.398197,12.359100,4540,,1,,,,,,,,,,,,
4541,Colombo,45.398159,12.359462,4541,,1,,,,,,,,,,,,
4542,Marconi Coralli,45.398521,12.361918,4542,,1,,,,,,,,,,,,
4543,Marconi Coralli,45.398190,12.361495,4543,,1,,,,,,,,,,,,
4544,Marconi Loredan,45.400810,12.363550,4544,,1,,,,,,,,,,,,
4545,Marconi Loredan,45.400513,12.363163,4545,,1,,,,,,,,,,,,
4548,Palazzo del Cinema,45.404827,12.366968,4548,,1,,,,,,,,,,,,
4549,Palazzo del Cinema,45.405041,12.367017,4549,,1,,,,,,,,,,,,
4550,Marconi Marcello,45.408398,12.370925,4550,,1,,,,,,,,,,,,
4551,Marconi Marcello,45.407921,12.370271,4551,,1,,,,,,,,,,,,
4552,Marconi Fiume,45.410751,12.373083,4552,,1,,,,,,,,,,,,
4553,Marconi Fiume,45.410542,12.372727,4553,,1,,,,,,,,,,,,
4554,Marconi Des Bains,45.413883,12.375796,4554,,1,,,,,,,,,,,,
4555,Marconi Des Bains,45.413788,12.375510,4555,,1,,,,,,,,,,,,
4556,Gallo Galoppatoio,45.397526,12.357835,4556,,1,,,,,,,,,,,,
4557,Gallo Galoppatoio,45.397755,12.358266,4557,,1,,,,,,,,,,,,
4558,Gallo Biblioteca,45.396557,12.357137,4558,,1,,,,,,,,,,,,
4559,Gallo Biblioteca,45.396912,12.357586,4559,,1,,,,,,,,,,,,
4560,Gallo Dei Giunta,45.394833,12.355750,4560,,1,,,,,,,,,,,,
4561,Gallo Dei Giunta,45.394993,12.356108,4561,,1,,,,,,,,,,,,
4562,Gallo Dei Kirchmayer,45.392620,12.354024,4562,,1,,,,,,,,,,,,
4563,Gallo Dei Kirchmayer,45.392921,12.354503,4563,,1,,,,,,,,,,,,
4564,Gallo Giolito,45.390038,12.352178,4564,,1,,,,,,,,,,,,
4565,Malamocco Occhi,45.384689,12.347568,4565,,1,,,,,,,,,,,,
4566,Malamocco Occhi,45.385986,12.348969,4566,,1,,,,,,,,,,,,
4567,Malamocco Alvisopoli,45.382938,12.346194,4567,,1,,,,,,,,,,,,
4568,Malamocco Alvisopoli,45.383129,12.346588,4568,,1,,,,,,,,,,,,
4569,Malamocco Parri,45.379070,12.342971,4569,,1,,,,,,,,,,,,
4570,Malamocco Parri,45.379635,12.343730,4570,,1,,,,,,,,,,,,
4571,Malamocco Bassanello,45.374409,12.338575,4571,,1,,,,,,,,,,,,
4572,Malamocco Bassanello,45.374283,12.338650,4572,,1,,,,,,,,,,,,
4573,Malamocco Centro,45.371658,12.336782,4573,,1,,,,,,,,,,,,
4575,Malamocco Centro,45.372002,12.336955,4575,,1,,,,,,,,,,,,
4576,Malamocco Galla,45.366463,12.335216,4576,,1,,,,,,,,,,,,
4577,Malamocco Galla,45.367123,12.335716,4577,,1,,,,,,,,,,,,
4578,Alberoni Ottagono,45.360973,12.332125,4578,,1,,,,,,,,,,,,
4579,Alberoni Ottagono,45.361156,12.332352,4579,,1,,,,,,,,,,,,
4580,Alberoni Colonia Morosini,45.358440,12.329723,4580,,1,,,,,,,,,,,,
4581,Alberoni Colonia Morosini,45.358528,12.329983,4581,,1,,,,,,,,,,,,
4582,Alberoni San Camillo,45.355240,12.326879,4582,,1,,,,,,,,,,,,
4583,Alberoni San Camillo,45.355293,12.327126,4583,,1,,,,,,,,,,,,
4584,Alberoni Stella Maris,45.352135,12.324331,4584,,1,,,,,,,,,,,,
4585,Alberoni Stella Maris,45.352306,12.324622,4585,,1,,,,,,,,,,,,
4586,Alberoni Ca' Rossa,45.348988,12.319267,4586,,1,,,,,,,,,,,,
4587,Alberoni Ca' Rossa,45.348858,12.319654,4587,,1,,,,,,,,,,,,
4588,Faro Rocchetta,45.341511,12.309429,4588,,1,,,,,,,,,,,,
4589,Alberoni della Droma,45.347183,12.318280,4589,,1,,,,,,,,,,,,
4590,Alberoni della Droma,45.347282,12.318595,4590,,1,,,,,,,,,,,,
4591,Alberoni Golf,45.344803,12.314596,4591,,1,,,,,,,,,,,,
4592,Alberoni Golf,45.344868,12.314901,4592,,1,,,,,,,,,,,,
4593,Faro Rocchetta,45.341427,12.309233,4593,,1,,,,,,,,,,,,
4594,Faro Rocchetta,45.340919,12.309791,4594,,1,,,,,,,,,,,,
4595,Santa Maria Del Mare,45.332474,12.318125,4595,,1,,,,,,,,,,,,
4596,Santa Maria Del Mare,45.332535,12.318345,4596,,1,,,,,,,,,,,,
4597,San Pietro Belvedere,45.323013,12.320028,4597,,1,,,,,,,,,,,,
4598,San Pietro Belvedere,45.323299,12.320290,4598,,1,,,,,,,,,,,,
4599,San Pietro Biblioteca,45.318851,12.317818,4599,,1,,,,,,,,,,,,
4600,Dei Murazzi Di Botta,45.319019,12.318080,4600,,1,,,,,,,,,,,,
4601,SanPietro Calle Tardivi,45.314922,12.315809,4601,,1,,,,,,,,,,,,
4602,SanPietro Calle Tardivi,45.315456,12.316178,4602,,1,,,,,,,,,,,,
4603,San Pietro Cimitero,45.312630,12.314828,4603,,1,,,,,,,,,,,,
4604,San Pietro Cimitero,45.313400,12.315276,4604,,1,,,,,,,,,,,,
4605,Portosecco,45.310535,12.314141,4605,,1,,,,,,,,,,,,
4606,Portosecco,45.310909,12.314353,4606,,1,,,,,,,,,,,,
4607,Portosecco la Mara,45.301357,12.310891,4607,,1,,,,,,,,,,,,
4608,Portosecco la Mara,45.301598,12.311175,4608,,1,,,,,,,,,,,,
4609,Pellestrina Centro Ittico,45.297215,12.309402,4609,,1,,,,,,,,,,,,
4610,Pellestrina Centro Ittico,45.297974,12.309777,4610,,1,,,,,,,,,,,,
4611,Pellestrina Pennello 10,45.290775,12.306867,4611,,1,,,,,,,,,,,,
4612,Pellestrina Pennello 10,45.291100,12.307086,4612,,1,,,,,,,,,,,,
4613,Pellestrina Piovini,45.286125,12.305267,4613,,1,,,,,,,,,,,,
4614,Pellestrina Piovini,45.286110,12.305382,4614,,1,,,,,,,,,,,,
4615,Pellestrina Sant'Antonio,45.282776,12.304142,4615,,1,,,,,,,,,,,,
4616,Pellestrina Sant'Antonio,45.282990,12.304363,4616,,1,,,,,,,,,,,,
4617,Scuola Media Loredan,45.279900,12.303107,4617,,1,,,,,,,,,,,,
4618,Dei Murazzi Centro Civico,45.280102,12.303529,4618,,1,,,,,,,,,,,,
4619,Scuola Zendrini,45.275307,12.302208,4619,,1,,,,,,,,,,,,
4620,Dei Murazzi Scuola Elemen,45.275387,12.302474,4620,,1,,,,,,,,,,,,
4621,Madonna dell'Apparizione,45.272633,12.301752,4621,,1,,,,,,,,,,,,
4622,Madonna dell'Apparizione,45.272812,12.302169,4622,,1,,,,,,,,,,,,
4623,Pellestrina Campo Stella,45.269112,12.301373,4623,,1,,,,,,,,,,,,
4624,Dei Murazzi Campo Stella,45.269245,12.301788,4624,,1,,,,,,,,,,,,
4625,Pellestrina Cimitero,45.262878,12.300303,4625,,1,,,,,,,,,,,,
4628,Santa Maria Elisabetta,45.416893,12.368805,4628,,1,,,,,,,,,,,,
4629,Gallo Bragadin,45.412682,12.367222,4629,,1,,,,,,,,,,,,
4630,Gallo Bragadin,45.413223,12.367537,4630,,1,,,,,,,,,,,,
4631,Malamocco Stagnino,45.387177,12.349908,4631,,1,,,,,,,,,,,,
4632,Malamocco Stagnino,45.386951,12.349558,4632,,1,,,,,,,,,,,,
4635,Piazzale Rava',45.423088,12.384969,4635,,1,,,,,,,,,,,,
4638,Pellestrina Tre Rose,45.266838,12.301488,4638,,1,,,,,,,,,,,,
4639,Pellestrina Tre Rose,45.266926,12.301721,4639,,1,,,,,,,,,,,,
4641,Santa Maria Elisabetta,45.417770,12.369103,4641,,1,,,,,,,,,,,,
4644,D'Annunzio Duodo,45.419300,12.380477,4644,,1,,,,,,,,,,,,
4647,Gallo Giolito,45.389797,12.351787,4647,,1,,,,,,,,,,,,
4650,Mogliano Buratti,45.570812,12.235217,4650,,3,,,,,,,,,,,,
4651,Mogliano Buratti,45.571243,12.235007,4651,,3,,,,,,,,,,,,
4652,Boschetta,45.580471,12.228602,4652,,3,,,,,,,,,,,,
4653,Boschetta,45.580162,12.228619,4653,,3,,,,,,,,,,,,
4654,Adria Marconi,45.058018,12.059108,4654,,43,,,,,,,,,,,,
4655,Adria Marconi,45.058083,12.059030,4655,,43,,,,,,,,,,,,
4656,Adria Fs,45.060307,12.052425,4656,,43,,,,,,,,,,,,
4657,Maerne Civico 83,45.534325,12.147093,4657,,18,,,,,,,,,,,,
4658,Maerne Civico 83,45.534641,12.146672,4658,,18,,,,,,,,,,,,
4661,Portosecco Campi Sportivi,45.305878,12.312383,4661,,1,,,,,,,,,,,,
4662,Dei Murazzi Campo Sportiv,45.306084,12.312571,4662,,1,,,,,,,,,,,,
4663,Lova Resistenza,45.334644,12.098025,4663,,8,,,,,,,,,,,,
4664,Lova Resistenza,45.334507,12.098225,4664,,8,,,,,,,,,,,,
4666,Rottanova,45.151276,12.009941,4666,,50,,,,,,,,,,,,
4667,Rottanova,45.151237,12.009878,4667,,50,,,,,,,,,,,,
4668,Cona Zuccona,45.180969,12.015645,4668,,13,,,,,,,,,,,,
4669,Cona Zuccona,45.181187,12.016057,4669,,13,,,,,,,,,,,,
4675,MESTRE CENTRO B6,45.494007,12.245472,4675,,48,,,,,,,,,,,,
4679,Ballo' FS,45.453262,12.071708,4679,,54,,,,,,,,,,,,
4680,Dolo Veneto,45.426769,12.077963,4680,,14,,,,,,,,,,,,
4681,Dolo Pio X,45.429256,12.074647,4681,,14,,,,,,,,,,,,
4686,Mirano Meneghetti,45.489048,12.105944,4686,,20,,,,,,,,,,,,
4687,Mirano Meneghetti,45.489246,12.106282,4687,,20,,,,,,,,,,,,
4688,Mirano Firenze,45.486137,12.106611,4688,,20,,,,,,,,,,,,
4689,Mirano Gramsci,45.487270,12.106140,4689,,20,,,,,,,,,,,,
4690,Mira Porte,45.439243,12.139359,4690,,51,,,,,,,,,,,,
4692,Mira Scuole,45.438026,12.127295,4692,,51,,,,,,,,,,,,
4693,Mira Poste,45.435665,12.121448,4693,,51,,,,,,,,,,,,
4697,Miranese Marano FS,45.462711,12.118780,4697,,51,,,,,,,,,,,,
4698,Dolo Pio x,45.428734,12.074537,4698,,14,,,,,,,,,,,,
4699,Dolo Veneto,45.426685,12.078183,4699,,14,,,,,,,,,,,,
4704,Cavarzere Madonne,45.119804,12.102748,4704,,50,,,,,,,,,,,,
4705,Cavarzere Madonne,45.119747,12.102823,4705,,50,,,,,,,,,,,,
4718,Distributore,45.500935,12.054734,4718,,53,,,,,,,,,,,,
4725,Mira 25 Aprile,45.417091,12.152299,4725,,51,,,,,,,,,,,,
4726,Mira 25 Aprile,45.417114,12.152157,4726,,51,,,,,,,,,,,,
4727,Mirano Albinoni,45.484116,12.107681,4727,,20,,,,,,,,,,,,
4728,Porara Albinoni,45.484509,12.107907,4728,,20,,,,,,,,,,,,
4729,Parcheggio BUS,45.418175,12.370293,4729,,1,,,,,,,,,,,,
4731,Brendole Stignano,45.499355,12.214311,4731,,48,,,,,,,,,,,,
4732,Noale Vernice,45.540356,12.065653,4732,,21,,,,,,,,,,,,
4733,Noale Vernice,45.540421,12.066002,4733,,21,,,,,,,,,,,,
4738,Sansovino Vespucci,45.487083,12.256978,4738,,48,,,,,,,,,,,,
4745,Tosatto Paccagnella,45.510792,12.229761,4745,,48,,,,,,,,,,,,
4746,Mira Piscina,45.437004,12.146632,4746,,51,,,,,,,,,,,,
4747,Mirai Pertini,45.435341,12.144093,4747,,51,,,,,,,,,,,,
4771,Mira Alberti,45.432743,12.141243,4771,,51,,,,,,,,,,,,
4772,Mira Bernini,45.434589,12.141792,4772,,51,,,,,,,,,,,,
4773,Mira Pertini,45.435295,12.143999,4773,,51,,,,,,,,,,,,
4774,Mira Di Vittorio,45.435616,12.146952,4774,,51,,,,,,,,,,,,
4775,Mira Piscina,45.437283,12.146319,4775,,51,,,,,,,,,,,,
4776,Mira Capolinea,45.429386,12.134667,4776,,51,,,,,,,,,,,,
4788,Boscochiaro 4 Novembre,45.137447,12.116684,4788,,50,,,,,,,,,,,,
4794,Mogliano Meucci,45.556061,12.229054,4794,,3,,,,,,,,,,,,
4795,Mogliano Meucci,45.556625,12.229229,4795,,3,,,,,,,,,,,,
4808,Spinea Municipio,45.491547,12.164321,4808,,27,,,,,,,,,,,,
4810,Spinea Roma,45.489956,12.169884,4810,,27,,,,,,,,,,,,
4811,Spinea Roma,45.489983,12.169703,4811,,27,,,,,,,,,,,,
4812,Spinea Sarpi,45.486530,12.167828,4812,,27,,,,,,,,,,,,
4813,Spinea Grossi,45.484165,12.166053,4813,,27,,,,,,,,,,,,
4814,Spinea Sarpi,45.486465,12.167516,4814,,27,,,,,,,,,,,,
4815,Mira Alfieri,45.435955,12.121231,4815,,51,,,,,,,,,,,,
4822,Crea Civico 8D,45.478462,12.149027,4822,,27,,,,,,,,,,,,
4823,Crea Civico 21,45.477791,12.150016,4823,,27,,,,,,,,,,,,
4824,Spinea Centro Sportivo,45.488033,12.149370,4824,,27,,,,,,,,,,,,
4825,Spinea Centro Sportivo,45.487976,12.149157,4825,,27,,,,,,,,,,,,
4826,Spinea Taormina,45.488056,12.151726,4826,,27,,,,,,,,,,,,
4827,Spinea Taormina,45.488194,12.151013,4827,,27,,,,,,,,,,,,
4828,Spinea Pastrengo,45.488186,12.155153,4828,,27,,,,,,,,,,,,
4830,Spinea Pastrengo,45.488312,12.155491,4830,,27,,,,,,,,,,,,
4831,Spinea Mion,45.490288,12.158263,4831,,27,,,,,,,,,,,,
4832,Spinea Mion,45.490551,12.158356,4832,,27,,,,,,,,,,,,
4833,Martellago Trieste,45.538773,12.153307,4833,,18,,,,,,,,,,,,
4834,Martellago Trieste,45.538414,12.153091,4834,,18,,,,,,,,,,,,
4837,Mogliano FS,45.561535,12.233100,4837,,3,,,,,,,,,,,,
4838,Zero Branco Via Scandolar,45.613815,12.112705,4838,,49,,,,,,,,,,,,
6001,Monte Celo Favaro,45.505959,12.290858,6001,,48,,,,,,,,,,,,
6002,Monte Celo Favaro,45.505878,12.290960,6002,,48,,,,,,,,,,,,
6003,Triestina Monte Cimon,45.505257,12.286060,6003,,48,,,,,,,,,,,,
6004,Triestina Monte Cimon,45.505192,12.286190,6004,,48,,,,,,,,,,,,
6005,San Dona' Pastrello,45.504448,12.281774,6005,,48,,,,,,,,,,,,
6006,San Dona' Pastrello,45.504349,12.281841,6006,,48,,,,,,,,,,,,
6007,San Dona' Marmolada,45.503036,12.277429,6007,,48,,,,,,,,,,,,
6008,San Dona' Marmolada,45.503025,12.277677,6008,,48,,,,,,,,,,,,
6009,San Dona' Cervino,45.502602,12.274581,6009,,48,,,,,,,,,,,,
6010,San Dona' Cervino,45.502529,12.274726,6010,,48,,,,,,,,,,,,
6011,San Dona' Rielta,45.502575,12.271045,6011,,48,,,,,,,,,,,,
6013,San Dona' Pineta,45.503498,12.264959,6013,,48,,,,,,,,,,,,
6014,San Dona' Pineta,45.503204,12.266637,6014,,48,,,,,,,,,,,,
6015,San Dona' Pasqualigo,45.504131,12.261972,6015,,48,,,,,,,,,,,,
6016,San Dona' Pasqualigo,45.504135,12.260842,6016,,48,,,,,,,,,,,,
6017,San Dona' Val Gardena,45.503689,12.258128,6017,,48,,,,,,,,,,,,
6018,San Dona' Val Gardena,45.503571,12.256841,6018,,48,,,,,,,,,,,,
6019,Ca' Rossa Serravalle,45.502968,12.254785,6019,,48,,,,,,,,,,,,
6020,Ca' Rossa Serravalle,45.502468,12.254820,6020,,48,,,,,,,,,,,,
6021,Ca' Rossa Oberdan,45.500740,12.252603,6021,,48,,,,,,,,,,,,
6022,Ca' Rossa Oberdan,45.500511,12.252548,6022,,48,,,,,,,,,,,,
6023,Ca' Rossa Volturno,45.497952,12.249966,6023,,48,,,,,,,,,,,,
6024,Ca' Rossa Volturno,45.498058,12.250185,6024,,48,,,,,,,,,,,,
6025,Ca' Rossa Bissuola,45.495972,12.248267,6025,,48,,,,,,,,,,,,
6026,Ca' Rossa Bissuola,45.495964,12.248408,6026,,48,,,,,,,,,,,,
6027,MESTRE CENTRO A1,45.493160,12.245396,6027,,48,,,,,,,,,,,,
6028,Lavelli Paolucci,45.478947,12.225672,6028,,48,,,,,,,,,,,,
6029,Olivi,45.491592,12.241667,6029,,48,,,,,,,,,,,,
6030,Olivi,45.491711,12.241860,6030,,48,,,,,,,,,,,,
6031,Cappuccina Villa ErizzoM9,45.490330,12.240511,6031,,48,,,,,,,,,,,,
6032,Cappuccina Villa ErizzoM9,45.490360,12.240670,6032,,48,,,,,,,,,,,,
6033,Cappuccina Bembo,45.486599,12.238063,6033,,48,,,,,,,,,,,,
6034,Cappuccina Bembo,45.486706,12.238233,6034,,48,,,,,,,,,,,,
6035,Cappuccina Sernaglia,45.484447,12.236703,6035,,48,,,,,,,,,,,,
6036,Cappuccina Sernaglia,45.484211,12.236690,6036,,48,,,,,,,,,,,,
6037,Sant'Antonio Municipio,45.476894,12.224855,6037,,48,,,,,,,,,,,,
6038,Piazza Mercato,45.473724,12.223582,6038,,48,,,,,,,,,,,,
6039,Rinascita Beccaria,45.469875,12.222342,6039,,48,,,,,,,,,,,,
6040,Rinascita Beccaria,45.469990,12.222538,6040,,48,,,,,,,,,,,,
6041,Cafasso Bottenigo,45.462223,12.219540,6041,,48,,,,,,,,,,,,
6048,Piazzale Giovanancci,45.479164,12.229318,6048,,48,,,,,,,,,,,,
6049,Piazzale Giovannacci,45.479130,12.229463,6049,,48,,,,,,,,,,,,
6051,Piazza Mercato,45.474094,12.223848,6051,,48,,,,,,,,,,,,
6052,Sant'Antonio Municipio,45.476948,12.224995,6052,,48,,,,,,,,,,,,
6053,Lavelli Paolucci,45.479126,12.225848,6053,,48,,,,,,,,,,,,
6054,Cafasso Bottenigo,45.462135,12.219719,6054,,48,,,,,,,,,,,,
6055,San Marco Manuzio,45.492332,12.248230,6055,,48,,,,,,,,,,,,
6056,San Marco Manuzio,45.492512,12.248130,6056,,48,,,,,,,,,,,,
6057,San Marco Cattaneo,45.490131,12.251319,6057,,48,,,,,,,,,,,,
6058,San Marco Cattaneo,45.490158,12.251495,6058,,48,,,,,,,,,,,,
6059,San Marco Musatti,45.487682,12.254318,6059,,48,,,,,,,,,,,,
6060,San Marco Musatti,45.487797,12.254327,6060,,48,,,,,,,,,,,,
6061,San Marco Sansovino,45.485058,12.257099,6061,,48,,,,,,,,,,,,
6062,San Marco Sansovino,45.485180,12.257124,6062,,48,,,,,,,,,,,,
6063,San Marco Molmenti,45.482845,12.259573,6063,,48,,,,,,,,,,,,
6064,San Marco Molmenti,45.482918,12.259626,6064,,48,,,,,,,,,,,,
6065,San Marco Boerio,45.480980,12.261805,6065,,48,,,,,,,,,,,,
6066,San Marco Boerio,45.481033,12.261869,6066,,48,,,,,,,,,,,,
6067,San Marco Forte Marghera,45.478283,12.265535,6067,,48,,,,,,,,,,,,
6068,San Marco Forte Marghera,45.478447,12.265444,6068,,48,,,,,,,,,,,,
6069,Salamonio Marghera,45.465782,12.214595,6069,,48,,,,,,,,,,,,
6071,Orlanda San Giuliano,45.473347,12.268441,6071,,48,,,,,,,,,,,,
6072,Orlanda San Giuliano,45.473690,12.269094,6072,,48,,,,,,,,,,,,
6073,Stazione Mestre FS,45.481922,12.234917,6073,,48,,,,,,,,,,,,
6074,Stazione Mestre FS,45.481861,12.235136,6074,,48,,,,,,,,,,,,
6075,Rinascita Emmer,45.465260,12.220663,6075,,48,,,,,,,,,,,,
6076,Rinascita Emmer,45.465282,12.220538,6076,,48,,,,,,,,,,,,
6080,MESTRE CENTRO A4,45.493198,12.245523,6080,,48,,,,,,,,,,,,
6081,MESTRE CENTRO A2,45.492691,12.245608,6081,,48,,,,,,,,,,,,
6084,VENEZIA CORSIA C,45.437992,12.319110,6084,,1,,,,,,,,,,,,
6085,Piazzale Roma,45.437889,12.317260,6085,,1,,,,,,,,,,,,
6086,Marittima (Cruise Termina,45.440041,12.312833,6086,,1,,,,,,,,,,,,
6088,Tronchetto,45.442055,12.308325,6088,,1,,,,,,,,,,,,
6501,Torino,45.477364,12.254822,6501,,48,,,,,,,,,,,,
8001,Parcheggio Parcheggio Mog,45.553440,12.246783,8001,,3,,,,,,,,,,,,
8002,Ronzinella Fermata Di Ser,45.554501,12.247909,8002,,3,,,,,,,,,,,,
8003,Ronzinella Fermata Di Ser,45.554344,12.248064,8003,,3,,,,,,,,,,,,
8005,v.le dell' Industria Parc,45.399250,12.050110,8005,,16,,,,,,,,,,,,
8007,Parcheggio Bojon,45.338360,12.088140,8007,,8,,,,,,,,,,,,
8009,Deposito Dolo,45.426048,12.081361,8009,,14,,,,,,,,,,,,
8010,Martiri della Liberta' De,45.486809,12.273461,8010,,48,,,,,,,,,,,,
8011,Deposito Actv,45.417236,12.377856,8011,,1,,,,,,,,,,,,
8012,Granatieri di Sardegna De,45.207466,12.277295,8012,,2,,,,,,,,,,,,
8017,Cavin di Sala Parcheggio,45.494419,12.093053,8017,,53,,,,,,,,,,,,
8018,STRADA Parcheggio Noale,45.552681,12.067490,8018,,21,,,,,,,,,,,,
8019,Parcheggio Scorze',45.573212,12.103961,8019,,26,,,,,,,,,,,,
8023,Deposito della Fisica,45.446297,12.207698,8023,,48,,,,,,,,,,,,
8024,Parcheggio VEMPA,45.482456,12.237760,8024,,48,,,,,,,,,,,,
8029,Fisica Deposito via della,45.446026,12.207792,8029,,48,,,,,,,,,,,,
8030,Deposito M.Celo Deposito,45.505295,12.294770,8030,,48,,,,,,,,,,,,
8034,Preganziol Parcheggio Pre,45.601982,12.230536,8034,,5,,,,,,,,,,,,
8035,Cavarzere Deposito,45.148582,12.084016,8035,,50,,,,,,,,,,,,
8038,Cappuccina Servizio TRAM,45.483040,12.235804,8038,,48,,,,,,,,,,,,
8039,Monte Celo Tronchino,45.505825,12.293306,8039,,48,,,,,,,,,,,,
8040,D'Annunzio Deposito,45.416958,12.378319,8040,,1,,,,,,,,,,,,
8041,D'Annunzio Deposito,45.416862,12.378528,8041,,1,,,,,,,,,,,,
8042,Goldoni Deposito SITA,45.416698,11.889414,8042,,36,,,,,,,,,,,,
8044,Corsia A7 Ve.Park,45.437759,12.318206,8044,,1,,,,,,,,,,,,
8050,Distributore Idrogeno,45.479465,12.270496,8050,,48,,,,,,,,,,,,
8051,Distributore Cavarzere,45.147842,12.063563,8051,,50,,,,,,,,,,,,
8052,v.le dell' Industria Parc,45.397945,12.050140,8052,,16,,,,,,,,,,,,
8054,Distributore Dolo,45.428696,12.107488,8054,,14,,,,,,,,,,,,
9026,Maerne FS,45.518677,12.152503,9026,,18,,,,,,,,,,,,
9040,Santa Maria Elisabetta,45.417564,12.368759,9040,,1,,,,,,,,,,,,
9047,Rismondo Provvisoria,45.415070,11.893468,9047,,36,,,,,,,,,,,,
11380,Liberta' Fincantieri,45.475037,12.252065,11380,,48,,,,,,,,,,,,
